[
	{
		"type": "Feature",
		"geometry": {
			"type": "Point", 
			"coordinates": [-66.563545, 18.010702]
		},
		"properties": {
			"title": "Areopuerto Internacional Michael Gonzalez",
			"iata": "TJP",
			"size": "large"
		}
    },
	{
		"type": "Feature",
		"geometry": {
			"type": "Point", 
			"coordinates": [147.21446, -9.444308]
		},
		"properties": {
			"title": "Port Moresby Jacksons International Airport",
			"iata": "POM",
			"size": "large"
		}
    },
	{
		"type": "Feature",
		"geometry": {
			"type": "Point", 
			"coordinates": [-22.624283, 63.997765]
		},
		"properties": {
			"title": "Keflavik International Airport",
			"iata": "KEF",
			"size": "large"
		}
    },
	{
		"type": "Feature",
		"geometry": {
			"type": "Point", 
			"coordinates": [-113.584045, 53.307377]
		},
		"properties": {
			"title": "Edmonton International Airport",
			"iata": "YEG",
			"size": "large"
		}
    },
	{
		"type": "Feature",
		"geometry": {
			"type": "Point", 
			"coordinates": [-63.51425, 44.88496]
		},
		"properties": {
			"title": "Halifax \/ Stanfield International Airport",
			"iata": "YHZ",
			"size": "large"
		}
    },
	{
		"type": "Feature",
		"geometry": {
			"type": "Point", 
			"coordinates": [-75.672775, 45.32083]
		},
		"properties": {
			"title": "Ottawa Macdonald-Cartier International Airport",
			"iata": "YOW",
			"size": "large"
		}
    },
	{
		"type": "Feature",
		"geometry": {
			"type": "Point", 
			"coordinates": [-71.383385, 46.792038]
		},
		"properties": {
			"title": "Quebec Jean Lesage International Airport",
			"iata": "YQB",
			"size": "large"
		}
    },
	{
		"type": "Feature",
		"geometry": {
			"type": "Point", 
			"coordinates": [-73.74991, 45.457714]
		},
		"properties": {
			"title": "Montreal \/ Pierre Elliott Trudeau International Airport",
			"iata": "YUL",
			"size": "large"
		}
    },
	{
		"type": "Feature",
		"geometry": {
			"type": "Point", 
			"coordinates": [-123.17919, 49.1947]
		},
		"properties": {
			"title": "Vancouver International Airport",
			"iata": "YVR",
			"size": "large"
		}
    },
	{
		"type": "Feature",
		"geometry": {
			"type": "Point", 
			"coordinates": [-97.23333, 49.9]
		},
		"properties": {
			"title": "Winnipeg \/ James Armstrong Richardson International Airport",
			"iata": "YWG",
			"size": "large"
		}
    },
	{
		"type": "Feature",
		"geometry": {
			"type": "Point", 
			"coordinates": [-81.14965, 43.02802]
		},
		"properties": {
			"title": "London Airport",
			"iata": "YXU",
			"size": "large"
		}
    },
	{
		"type": "Feature",
		"geometry": {
			"type": "Point", 
			"coordinates": [-114.01055, 51.131393]
		},
		"properties": {
			"title": "Calgary International Airport",
			"iata": "YYC",
			"size": "large"
		}
    },
	{
		"type": "Feature",
		"geometry": {
			"type": "Point", 
			"coordinates": [-123.43096, 48.640266]
		},
		"properties": {
			"title": "Victoria International Airport",
			"iata": "YYJ",
			"size": "large"
		}
    },
	{
		"type": "Feature",
		"geometry": {
			"type": "Point", 
			"coordinates": [-79.61146, 43.681583]
		},
		"properties": {
			"title": "Lester B. Pearson International Airport",
			"iata": "YYZ",
			"size": "large"
		}
    },
	{
		"type": "Feature",
		"geometry": {
			"type": "Point", 
			"coordinates": [3.21167, 36.70058]
		},
		"properties": {
			"title": "Houari Boumediene Airport",
			"iata": "ALG",
			"size": "large"
		}
    },
	{
		"type": "Feature",
		"geometry": {
			"type": "Point", 
			"coordinates": [-0.171769, 5.60737]
		},
		"properties": {
			"title": "Kotoka International Airport",
			"iata": "ACC",
			"size": "large"
		}
    },
	{
		"type": "Feature",
		"geometry": {
			"type": "Point", 
			"coordinates": [7.270447, 9.004614]
		},
		"properties": {
			"title": "Nnamdi Azikiwe International Airport",
			"iata": "ABV",
			"size": "large"
		}
    },
	{
		"type": "Feature",
		"geometry": {
			"type": "Point", 
			"coordinates": [3.321178, 6.577871]
		},
		"properties": {
			"title": "Murtala Muhammed International Airport",
			"iata": "LOS",
			"size": "large"
		}
    },
	{
		"type": "Feature",
		"geometry": {
			"type": "Point", 
			"coordinates": [10.21709, 36.847622]
		},
		"properties": {
			"title": "Tunis Carthage International Airport",
			"iata": "TUN",
			"size": "large"
		}
    },
	{
		"type": "Feature",
		"geometry": {
			"type": "Point", 
			"coordinates": [4.483602, 50.89717]
		},
		"properties": {
			"title": "Brussels Airport",
			"iata": "BRU",
			"size": "large"
		}
    },
	{
		"type": "Feature",
		"geometry": {
			"type": "Point", 
			"coordinates": [13.766082, 51.124332]
		},
		"properties": {
			"title": "Dresden Airport",
			"iata": "DRS",
			"size": "large"
		}
    },
	{
		"type": "Feature",
		"geometry": {
			"type": "Point", 
			"coordinates": [8.570773, 50.050735]
		},
		"properties": {
			"title": "Frankfurt am Main International Airport",
			"iata": "FRA",
			"size": "large"
		}
    },
	{
		"type": "Feature",
		"geometry": {
			"type": "Point", 
			"coordinates": [7.694928, 52.130054]
		},
		"properties": {
			"title": "Muenster Osnabrueck Airport",
			"iata": "FMO",
			"size": "large"
		}
    },
	{
		"type": "Feature",
		"geometry": {
			"type": "Point", 
			"coordinates": [10.006414, 53.63128]
		},
		"properties": {
			"title": "Hamburg Airport",
			"iata": "HAM",
			"size": "large"
		}
    },
	{
		"type": "Feature",
		"geometry": {
			"type": "Point", 
			"coordinates": [7.122224, 50.878365]
		},
		"properties": {
			"title": "Cologne Bonn Airport",
			"iata": "CGN",
			"size": "large"
		}
    },
	{
		"type": "Feature",
		"geometry": {
			"type": "Point", 
			"coordinates": [6.76558, 51.278328]
		},
		"properties": {
			"title": "Dusseldorf International Airport",
			"iata": "DUS",
			"size": "large"
		}
    },
	{
		"type": "Feature",
		"geometry": {
			"type": "Point", 
			"coordinates": [11.790143, 48.353004]
		},
		"properties": {
			"title": "Munich International Airport",
			"iata": "MUC",
			"size": "large"
		}
    },
	{
		"type": "Feature",
		"geometry": {
			"type": "Point", 
			"coordinates": [11.077062, 49.494167]
		},
		"properties": {
			"title": "Nuremberg Airport",
			"iata": "NUE",
			"size": "large"
		}
    },
	{
		"type": "Feature",
		"geometry": {
			"type": "Point", 
			"coordinates": [12.221202, 51.42026]
		},
		"properties": {
			"title": "Leipzig Halle Airport",
			"iata": "LEJ",
			"size": "large"
		}
    },
	{
		"type": "Feature",
		"geometry": {
			"type": "Point", 
			"coordinates": [9.193624, 48.69073]
		},
		"properties": {
			"title": "Stuttgart Airport",
			"iata": "STR",
			"size": "large"
		}
    },
	{
		"type": "Feature",
		"geometry": {
			"type": "Point", 
			"coordinates": [13.291722, 52.553944]
		},
		"properties": {
			"title": "Berlin-Tegel International Airport",
			"iata": "TXL",
			"size": "large"
		}
    },
	{
		"type": "Feature",
		"geometry": {
			"type": "Point", 
			"coordinates": [9.694766, 52.459255]
		},
		"properties": {
			"title": "Hannover Airport",
			"iata": "HAJ",
			"size": "large"
		}
    },
	{
		"type": "Feature",
		"geometry": {
			"type": "Point", 
			"coordinates": [8.785352, 53.05297]
		},
		"properties": {
			"title": "Bremen Airport",
			"iata": "BRE",
			"size": "large"
		}
    },
	{
		"type": "Feature",
		"geometry": {
			"type": "Point", 
			"coordinates": [7.613139, 51.514828]
		},
		"properties": {
			"title": "Dortmund Airport",
			"iata": "DTM",
			"size": "large"
		}
    },
	{
		"type": "Feature",
		"geometry": {
			"type": "Point", 
			"coordinates": [8.089752, 48.781033]
		},
		"properties": {
			"title": "Karlsruhe Baden-Baden Airport",
			"iata": "FKB",
			"size": "large"
		}
    },
	{
		"type": "Feature",
		"geometry": {
			"type": "Point", 
			"coordinates": [24.798702, 59.416622]
		},
		"properties": {
			"title": "Tallinn Airport",
			"iata": "TLL",
			"size": "large"
		}
    },
	{
		"type": "Feature",
		"geometry": {
			"type": "Point", 
			"coordinates": [24.96645, 60.31795]
		},
		"properties": {
			"title": "Helsinki Vantaa Airport",
			"iata": "HEL",
			"size": "large"
		}
    },
	{
		"type": "Feature",
		"geometry": {
			"type": "Point", 
			"coordinates": [-6.217616, 54.662395]
		},
		"properties": {
			"title": "Belfast International Airport",
			"iata": "BFS",
			"size": "large"
		}
    },
	{
		"type": "Feature",
		"geometry": {
			"type": "Point", 
			"coordinates": [-5.870215, 54.61452]
		},
		"properties": {
			"title": "George Best Belfast City Airport",
			"iata": "BHD",
			"size": "large"
		}
    },
	{
		"type": "Feature",
		"geometry": {
			"type": "Point", 
			"coordinates": [-1.733256, 52.45252]
		},
		"properties": {
			"title": "Birmingham International Airport",
			"iata": "BHX",
			"size": "large"
		}
    },
	{
		"type": "Feature",
		"geometry": {
			"type": "Point", 
			"coordinates": [-2.273354, 53.362907]
		},
		"properties": {
			"title": "Manchester Airport",
			"iata": "MAN",
			"size": "large"
		}
    },
	{
		"type": "Feature",
		"geometry": {
			"type": "Point", 
			"coordinates": [-1.01155, 53.481003]
		},
		"properties": {
			"title": "Robin Hood Doncaster Sheffield Airport",
			"iata": "DSA",
			"size": "large"
		}
    },
	{
		"type": "Feature",
		"geometry": {
			"type": "Point", 
			"coordinates": [-3.339075, 51.39877]
		},
		"properties": {
			"title": "Cardiff International Airport",
			"iata": "CWL",
			"size": "large"
		}
    },
	{
		"type": "Feature",
		"geometry": {
			"type": "Point", 
			"coordinates": [-2.710659, 51.386757]
		},
		"properties": {
			"title": "Bristol International Airport",
			"iata": "BRS",
			"size": "large"
		}
    },
	{
		"type": "Feature",
		"geometry": {
			"type": "Point", 
			"coordinates": [-2.854905, 53.337616]
		},
		"properties": {
			"title": "Liverpool John Lennon Airport",
			"iata": "LPL",
			"size": "large"
		}
    },
	{
		"type": "Feature",
		"geometry": {
			"type": "Point", 
			"coordinates": [-0.376232, 51.87977]
		},
		"properties": {
			"title": "London Luton Airport",
			"iata": "LTN",
			"size": "large"
		}
    },
	{
		"type": "Feature",
		"geometry": {
			"type": "Point", 
			"coordinates": [-1.832476, 50.77827]
		},
		"properties": {
			"title": "Bournemouth Airport",
			"iata": "BOH",
			"size": "large"
		}
    },
	{
		"type": "Feature",
		"geometry": {
			"type": "Point", 
			"coordinates": [-1.361318, 50.950726]
		},
		"properties": {
			"title": "Southampton Airport",
			"iata": "SOU",
			"size": "large"
		}
    },
	{
		"type": "Feature",
		"geometry": {
			"type": "Point", 
			"coordinates": [-0.161863, 51.156807]
		},
		"properties": {
			"title": "London Gatwick Airport",
			"iata": "LGW",
			"size": "large"
		}
    },
	{
		"type": "Feature",
		"geometry": {
			"type": "Point", 
			"coordinates": [0.05, 51.5]
		},
		"properties": {
			"title": "London City Airport",
			"iata": "LCY",
			"size": "large"
		}
    },
	{
		"type": "Feature",
		"geometry": {
			"type": "Point", 
			"coordinates": [-0.453566, 51.469604]
		},
		"properties": {
			"title": "London Heathrow Airport",
			"iata": "LHR",
			"size": "large"
		}
    },
	{
		"type": "Feature",
		"geometry": {
			"type": "Point", 
			"coordinates": [-1.659985, 53.86934]
		},
		"properties": {
			"title": "Leeds Bradford Airport",
			"iata": "LBA",
			"size": "large"
		}
    },
	{
		"type": "Feature",
		"geometry": {
			"type": "Point", 
			"coordinates": [-1.710629, 55.037064]
		},
		"properties": {
			"title": "Newcastle Airport",
			"iata": "NCL",
			"size": "large"
		}
    },
	{
		"type": "Feature",
		"geometry": {
			"type": "Point", 
			"coordinates": [-1.330595, 52.82587]
		},
		"properties": {
			"title": "East Midlands Airport",
			"iata": "EMA",
			"size": "large"
		}
    },
	{
		"type": "Feature",
		"geometry": {
			"type": "Point", 
			"coordinates": [-2.204186, 57.200253]
		},
		"properties": {
			"title": "Aberdeen Dyce Airport",
			"iata": "ABZ",
			"size": "large"
		}
    },
	{
		"type": "Feature",
		"geometry": {
			"type": "Point", 
			"coordinates": [-4.431782, 55.864212]
		},
		"properties": {
			"title": "Glasgow International Airport",
			"iata": "GLA",
			"size": "large"
		}
    },
	{
		"type": "Feature",
		"geometry": {
			"type": "Point", 
			"coordinates": [-3.364177, 55.948143]
		},
		"properties": {
			"title": "Edinburgh Airport",
			"iata": "EDI",
			"size": "large"
		}
    },
	{
		"type": "Feature",
		"geometry": {
			"type": "Point", 
			"coordinates": [0.262703, 51.889267]
		},
		"properties": {
			"title": "London Stansted Airport",
			"iata": "STN",
			"size": "large"
		}
    },
	{
		"type": "Feature",
		"geometry": {
			"type": "Point", 
			"coordinates": [-3.410968, 50.73111]
		},
		"properties": {
			"title": "Exeter International Airport",
			"iata": "EXT",
			"size": "large"
		}
    },
	{
		"type": "Feature",
		"geometry": {
			"type": "Point", 
			"coordinates": [0.67609, 52.49167]
		},
		"properties": {
			"title": "RAF Lakenheath",
			"iata": "LKZ",
			"size": "large"
		}
    },
	{
		"type": "Feature",
		"geometry": {
			"type": "Point", 
			"coordinates": [0.483333, 52.36667]
		},
		"properties": {
			"title": "RAF Mildenhall",
			"iata": "MHZ",
			"size": "large"
		}
    },
	{
		"type": "Feature",
		"geometry": {
			"type": "Point", 
			"coordinates": [-1.783333, 51.733334]
		},
		"properties": {
			"title": "RAF Fairford",
			"iata": "FFD",
			"size": "large"
		}
    },
	{
		"type": "Feature",
		"geometry": {
			"type": "Point", 
			"coordinates": [-1.587093, 51.75]
		},
		"properties": {
			"title": "RAF Brize Norton",
			"iata": "BZZ",
			"size": "large"
		}
    },
	{
		"type": "Feature",
		"geometry": {
			"type": "Point", 
			"coordinates": [4.763385, 52.30907]
		},
		"properties": {
			"title": "Amsterdam Airport Schiphol",
			"iata": "AMS",
			"size": "large"
		}
    },
	{
		"type": "Feature",
		"geometry": {
			"type": "Point", 
			"coordinates": [5.768827, 50.91562]
		},
		"properties": {
			"title": "Maastricht Aachen Airport",
			"iata": "MST",
			"size": "large"
		}
    },
	{
		"type": "Feature",
		"geometry": {
			"type": "Point", 
			"coordinates": [5.391795, 51.457954]
		},
		"properties": {
			"title": "Eindhoven Airport",
			"iata": "EIN",
			"size": "large"
		}
    },
	{
		"type": "Feature",
		"geometry": {
			"type": "Point", 
			"coordinates": [-8.48914, 51.846645]
		},
		"properties": {
			"title": "Cork Airport",
			"iata": "ORK",
			"size": "large"
		}
    },
	{
		"type": "Feature",
		"geometry": {
			"type": "Point", 
			"coordinates": [-6.24357, 53.42728]
		},
		"properties": {
			"title": "Dublin Airport",
			"iata": "DUB",
			"size": "large"
		}
    },
	{
		"type": "Feature",
		"geometry": {
			"type": "Point", 
			"coordinates": [-8.92039, 52.69248]
		},
		"properties": {
			"title": "Shannon Airport",
			"iata": "SNN",
			"size": "large"
		}
    },
	{
		"type": "Feature",
		"geometry": {
			"type": "Point", 
			"coordinates": [9.147874, 55.747383]
		},
		"properties": {
			"title": "Billund Airport",
			"iata": "BLL",
			"size": "large"
		}
    },
	{
		"type": "Feature",
		"geometry": {
			"type": "Point", 
			"coordinates": [12.647601, 55.62905]
		},
		"properties": {
			"title": "Copenhagen Kastrup Airport",
			"iata": "CPH",
			"size": "large"
		}
    },
	{
		"type": "Feature",
		"geometry": {
			"type": "Point", 
			"coordinates": [9.872241, 57.08655]
		},
		"properties": {
			"title": "Aalborg Airport",
			"iata": "AAL",
			"size": "large"
		}
    },
	{
		"type": "Feature",
		"geometry": {
			"type": "Point", 
			"coordinates": [6.209539, 49.63111]
		},
		"properties": {
			"title": "Luxembourg-Findel International Airport",
			"iata": "LUX",
			"size": "large"
		}
    },
	{
		"type": "Feature",
		"geometry": {
			"type": "Point", 
			"coordinates": [5.228169, 60.289062]
		},
		"properties": {
			"title": "Bergen Airport, Flesland",
			"iata": "BGO",
			"size": "large"
		}
    },
	{
		"type": "Feature",
		"geometry": {
			"type": "Point", 
			"coordinates": [11.100411, 60.19419]
		},
		"properties": {
			"title": "Oslo Gardermoen Airport",
			"iata": "OSL",
			"size": "large"
		}
    },
	{
		"type": "Feature",
		"geometry": {
			"type": "Point", 
			"coordinates": [5.629197, 58.88215]
		},
		"properties": {
			"title": "Stavanger Airport, Sola",
			"iata": "SVG",
			"size": "large"
		}
    },
	{
		"type": "Feature",
		"geometry": {
			"type": "Point", 
			"coordinates": [18.468655, 54.380978]
		},
		"properties": {
			"title": "Gda?sk Lech Wa??sa Airport",
			"iata": "GDN",
			"size": "large"
		}
    },
	{
		"type": "Feature",
		"geometry": {
			"type": "Point", 
			"coordinates": [20.97329, 52.170906]
		},
		"properties": {
			"title": "Warsaw Chopin Airport",
			"iata": "WAW",
			"size": "large"
		}
    },
	{
		"type": "Feature",
		"geometry": {
			"type": "Point", 
			"coordinates": [12.294878, 57.66664]
		},
		"properties": {
			"title": "Gothenburg-Landvetter Airport",
			"iata": "GOT",
			"size": "large"
		}
    },
	{
		"type": "Feature",
		"geometry": {
			"type": "Point", 
			"coordinates": [17.930365, 59.64982]
		},
		"properties": {
			"title": "Stockholm-Arlanda Airport",
			"iata": "ARN",
			"size": "large"
		}
    },
	{
		"type": "Feature",
		"geometry": {
			"type": "Point", 
			"coordinates": [7.599187, 49.439938]
		},
		"properties": {
			"title": "Ramstein Air Base",
			"iata": "RMS",
			"size": "large"
		}
    },
	{
		"type": "Feature",
		"geometry": {
			"type": "Point", 
			"coordinates": [23.979807, 56.92208]
		},
		"properties": {
			"title": "Riga International Airport",
			"iata": "RIX",
			"size": "large"
		}
    },
	{
		"type": "Feature",
		"geometry": {
			"type": "Point", 
			"coordinates": [25.279606, 54.643078]
		},
		"properties": {
			"title": "Vilnius International Airport",
			"iata": "VNO",
			"size": "large"
		}
    },
	{
		"type": "Feature",
		"geometry": {
			"type": "Point", 
			"coordinates": [18.596489, -33.968906]
		},
		"properties": {
			"title": "Cape Town International Airport",
			"iata": "CPT",
			"size": "large"
		}
    },
	{
		"type": "Feature",
		"geometry": {
			"type": "Point", 
			"coordinates": [22.382235, -34.00148]
		},
		"properties": {
			"title": "George Airport",
			"iata": "GRJ",
			"size": "large"
		}
    },
	{
		"type": "Feature",
		"geometry": {
			"type": "Point", 
			"coordinates": [28.231314, -26.132664]
		},
		"properties": {
			"title": "OR Tambo International Airport",
			"iata": "JNB",
			"size": "large"
		}
    },
	{
		"type": "Feature",
		"geometry": {
			"type": "Point", 
			"coordinates": [31.116388, -29.614445]
		},
		"properties": {
			"title": "King Shaka International Airport",
			"iata": "DUR",
			"size": "large"
		}
    },
	{
		"type": "Feature",
		"geometry": {
			"type": "Point", 
			"coordinates": [-15.389351, 27.938944]
		},
		"properties": {
			"title": "Gran Canaria Airport",
			"iata": "LPA",
			"size": "large"
		}
    },
	{
		"type": "Feature",
		"geometry": {
			"type": "Point", 
			"coordinates": [-16.5725, 28.044443]
		},
		"properties": {
			"title": "Tenerife South Airport",
			"iata": "TFS",
			"size": "large"
		}
    },
	{
		"type": "Feature",
		"geometry": {
			"type": "Point", 
			"coordinates": [-16.345982, 28.488056]
		},
		"properties": {
			"title": "Tenerife Norte Airport",
			"iata": "TFN",
			"size": "large"
		}
    },
	{
		"type": "Feature",
		"geometry": {
			"type": "Point", 
			"coordinates": [-7.586667, 33.36667]
		},
		"properties": {
			"title": "Mohammed V International Airport",
			"iata": "CMN",
			"size": "large"
		}
    },
	{
		"type": "Feature",
		"geometry": {
			"type": "Point", 
			"coordinates": [31.40647, 30.120106]
		},
		"properties": {
			"title": "Cairo International Airport",
			"iata": "CAI",
			"size": "large"
		}
    },
	{
		"type": "Feature",
		"geometry": {
			"type": "Point", 
			"coordinates": [33.8055, 27.189156]
		},
		"properties": {
			"title": "Hurghada International Airport",
			"iata": "HRG",
			"size": "large"
		}
    },
	{
		"type": "Feature",
		"geometry": {
			"type": "Point", 
			"coordinates": [36.92578, -1.319167]
		},
		"properties": {
			"title": "Jomo Kenyatta International Airport",
			"iata": "NBO",
			"size": "large"
		}
    },
	{
		"type": "Feature",
		"geometry": {
			"type": "Point", 
			"coordinates": [39.60325, -4.0327]
		},
		"properties": {
			"title": "Mombasa Moi International Airport",
			"iata": "MBA",
			"size": "large"
		}
    },
	{
		"type": "Feature",
		"geometry": {
			"type": "Point", 
			"coordinates": [13.144279, 32.66989]
		},
		"properties": {
			"title": "Tripoli International Airport",
			"iata": "TIP",
			"size": "large"
		}
    },
	{
		"type": "Feature",
		"geometry": {
			"type": "Point", 
			"coordinates": [32.549698, 15.592217]
		},
		"properties": {
			"title": "Khartoum International Airport",
			"iata": "KRT",
			"size": "large"
		}
    },
	{
		"type": "Feature",
		"geometry": {
			"type": "Point", 
			"coordinates": [-106.617195, 35.049625]
		},
		"properties": {
			"title": "Albuquerque International Sunport Airport",
			"iata": "ABQ",
			"size": "large"
		}
    },
	{
		"type": "Feature",
		"geometry": {
			"type": "Point", 
			"coordinates": [-76.86667, 38.816666]
		},
		"properties": {
			"title": "Andrews Air Force Base",
			"iata": "ADW",
			"size": "large"
		}
    },
	{
		"type": "Feature",
		"geometry": {
			"type": "Point", 
			"coordinates": [-97.316666, 32.986668]
		},
		"properties": {
			"title": "Fort Worth Alliance Airport",
			"iata": "AFW",
			"size": "large"
		}
    },
	{
		"type": "Feature",
		"geometry": {
			"type": "Point", 
			"coordinates": [-81.973434, 33.373665]
		},
		"properties": {
			"title": "Augusta Regional At Bush Field",
			"iata": "AGS",
			"size": "large"
		}
    },
	{
		"type": "Feature",
		"geometry": {
			"type": "Point", 
			"coordinates": [-101.70513, 35.218273]
		},
		"properties": {
			"title": "Rick Husband Amarillo International Airport",
			"iata": "AMA",
			"size": "large"
		}
    },
	{
		"type": "Feature",
		"geometry": {
			"type": "Point", 
			"coordinates": [-84.44403, 33.640068]
		},
		"properties": {
			"title": "Hartsfield Jackson Atlanta International Airport",
			"iata": "ATL",
			"size": "large"
		}
    },
	{
		"type": "Feature",
		"geometry": {
			"type": "Point", 
			"coordinates": [-97.66706, 30.202545]
		},
		"properties": {
			"title": "Austin Bergstrom International Airport",
			"iata": "AUS",
			"size": "large"
		}
    },
	{
		"type": "Feature",
		"geometry": {
			"type": "Point", 
			"coordinates": [-82.537315, 35.43508]
		},
		"properties": {
			"title": "Asheville Regional Airport",
			"iata": "AVL",
			"size": "large"
		}
    },
	{
		"type": "Feature",
		"geometry": {
			"type": "Point", 
			"coordinates": [-121.583336, 39.15]
		},
		"properties": {
			"title": "Beale Air Force Base",
			"iata": "BAB",
			"size": "large"
		}
    },
	{
		"type": "Feature",
		"geometry": {
			"type": "Point", 
			"coordinates": [-93.666664, 32.5]
		},
		"properties": {
			"title": "Barksdale Air Force Base",
			"iata": "BAD",
			"size": "large"
		}
    },
	{
		"type": "Feature",
		"geometry": {
			"type": "Point", 
			"coordinates": [-72.6847, 41.92953]
		},
		"properties": {
			"title": "Bradley International Airport",
			"iata": "BDL",
			"size": "large"
		}
    },
	{
		"type": "Feature",
		"geometry": {
			"type": "Point", 
			"coordinates": [-122.3037, 47.5371]
		},
		"properties": {
			"title": "Boeing Field King County International Airport",
			"iata": "BFI",
			"size": "large"
		}
    },
	{
		"type": "Feature",
		"geometry": {
			"type": "Point", 
			"coordinates": [-68.82102, 44.812298]
		},
		"properties": {
			"title": "Bangor International Airport",
			"iata": "BGR",
			"size": "large"
		}
    },
	{
		"type": "Feature",
		"geometry": {
			"type": "Point", 
			"coordinates": [-86.75219, 33.560833]
		},
		"properties": {
			"title": "Birmingham-Shuttlesworth International Airport",
			"iata": "BHM",
			"size": "large"
		}
    },
	{
		"type": "Feature",
		"geometry": {
			"type": "Point", 
			"coordinates": [-108.53723, 45.803417]
		},
		"properties": {
			"title": "Billings Logan International Airport",
			"iata": "BIL",
			"size": "large"
		}
    },
	{
		"type": "Feature",
		"geometry": {
			"type": "Point", 
			"coordinates": [-88.91483, 40.48401]
		},
		"properties": {
			"title": "Central Illinois Regional Airport at Bloomington-Normal",
			"iata": "BMI",
			"size": "large"
		}
    },
	{
		"type": "Feature",
		"geometry": {
			"type": "Point", 
			"coordinates": [-86.668945, 36.13174]
		},
		"properties": {
			"title": "Nashville International Airport",
			"iata": "BNA",
			"size": "large"
		}
    },
	{
		"type": "Feature",
		"geometry": {
			"type": "Point", 
			"coordinates": [-116.22193, 43.569263]
		},
		"properties": {
			"title": "Boise Air Terminal\/Gowen field",
			"iata": "BOI",
			"size": "large"
		}
    },
	{
		"type": "Feature",
		"geometry": {
			"type": "Point", 
			"coordinates": [-71.02018, 42.36646]
		},
		"properties": {
			"title": "General Edward Lawrence Logan International Airport",
			"iata": "BOS",
			"size": "large"
		}
    },
	{
		"type": "Feature",
		"geometry": {
			"type": "Point", 
			"coordinates": [-91.156906, 30.532537]
		},
		"properties": {
			"title": "Baton Rouge Metropolitan, Ryan Field",
			"iata": "BTR",
			"size": "large"
		}
    },
	{
		"type": "Feature",
		"geometry": {
			"type": "Point", 
			"coordinates": [-78.731804, 42.933826]
		},
		"properties": {
			"title": "Buffalo Niagara International Airport",
			"iata": "BUF",
			"size": "large"
		}
    },
	{
		"type": "Feature",
		"geometry": {
			"type": "Point", 
			"coordinates": [-76.66894, 39.179527]
		},
		"properties": {
			"title": "Baltimore\/Washington International Thurgood Marshal Airport",
			"iata": "BWI",
			"size": "large"
		}
    },
	{
		"type": "Feature",
		"geometry": {
			"type": "Point", 
			"coordinates": [-81.12501, 33.946907]
		},
		"properties": {
			"title": "Columbia Metropolitan Airport",
			"iata": "CAE",
			"size": "large"
		}
    },
	{
		"type": "Feature",
		"geometry": {
			"type": "Point", 
			"coordinates": [-85.197784, 35.036926]
		},
		"properties": {
			"title": "Lovell Field",
			"iata": "CHA",
			"size": "large"
		}
    },
	{
		"type": "Feature",
		"geometry": {
			"type": "Point", 
			"coordinates": [-80.037155, 32.884354]
		},
		"properties": {
			"title": "Charleston Air Force Base-International Airport",
			"iata": "CHS",
			"size": "large"
		}
    },
	{
		"type": "Feature",
		"geometry": {
			"type": "Point", 
			"coordinates": [-91.7003, 41.889423]
		},
		"properties": {
			"title": "The Eastern Iowa Airport",
			"iata": "CID",
			"size": "large"
		}
    },
	{
		"type": "Feature",
		"geometry": {
			"type": "Point", 
			"coordinates": [-81.83821, 41.410854]
		},
		"properties": {
			"title": "Cleveland Hopkins International Airport",
			"iata": "CLE",
			"size": "large"
		}
    },
	{
		"type": "Feature",
		"geometry": {
			"type": "Point", 
			"coordinates": [-80.93584, 35.219166]
		},
		"properties": {
			"title": "Charlotte Douglas International Airport",
			"iata": "CLT",
			"size": "large"
		}
    },
	{
		"type": "Feature",
		"geometry": {
			"type": "Point", 
			"coordinates": [-82.884964, 39.99818]
		},
		"properties": {
			"title": "Port Columbus International Airport",
			"iata": "CMH",
			"size": "large"
		}
    },
	{
		"type": "Feature",
		"geometry": {
			"type": "Point", 
			"coordinates": [-104.70056, 38.79713]
		},
		"properties": {
			"title": "City of Colorado Springs Municipal Airport",
			"iata": "COS",
			"size": "large"
		}
    },
	{
		"type": "Feature",
		"geometry": {
			"type": "Point", 
			"coordinates": [-106.4625, 42.90861]
		},
		"properties": {
			"title": "Casper-Natrona County International Airport",
			"iata": "CPR",
			"size": "large"
		}
    },
	{
		"type": "Feature",
		"geometry": {
			"type": "Point", 
			"coordinates": [-97.50249, 27.774813]
		},
		"properties": {
			"title": "Corpus Christi International Airport",
			"iata": "CRP",
			"size": "large"
		}
    },
	{
		"type": "Feature",
		"geometry": {
			"type": "Point", 
			"coordinates": [-81.596504, 38.370342]
		},
		"properties": {
			"title": "Yeager Airport",
			"iata": "CRW",
			"size": "large"
		}
    },
	{
		"type": "Feature",
		"geometry": {
			"type": "Point", 
			"coordinates": [-84.66145, 39.0555]
		},
		"properties": {
			"title": "Cincinnati Northern Kentucky International Airport",
			"iata": "CVG",
			"size": "large"
		}
    },
	{
		"type": "Feature",
		"geometry": {
			"type": "Point", 
			"coordinates": [-96.85, 32.84391]
		},
		"properties": {
			"title": "Dallas Love Field",
			"iata": "DAL",
			"size": "large"
		}
    },
	{
		"type": "Feature",
		"geometry": {
			"type": "Point", 
			"coordinates": [-84.220764, 39.898006]
		},
		"properties": {
			"title": "James M Cox Dayton International Airport",
			"iata": "DAY",
			"size": "large"
		}
    },
	{
		"type": "Feature",
		"geometry": {
			"type": "Point", 
			"coordinates": [-90.71083, 42.41]
		},
		"properties": {
			"title": "Dubuque Regional Airport",
			"iata": "DBQ",
			"size": "large"
		}
    },
	{
		"type": "Feature",
		"geometry": {
			"type": "Point", 
			"coordinates": [-77.04346, 38.853436]
		},
		"properties": {
			"title": "Ronald Reagan Washington National Airport",
			"iata": "DCA",
			"size": "large"
		}
    },
	{
		"type": "Feature",
		"geometry": {
			"type": "Point", 
			"coordinates": [-104.672844, 39.84939]
		},
		"properties": {
			"title": "Denver International Airport",
			"iata": "DEN",
			"size": "large"
		}
    },
	{
		"type": "Feature",
		"geometry": {
			"type": "Point", 
			"coordinates": [-97.036125, 32.89746]
		},
		"properties": {
			"title": "Dallas Fort Worth International Airport",
			"iata": "DFW",
			"size": "large"
		}
    },
	{
		"type": "Feature",
		"geometry": {
			"type": "Point", 
			"coordinates": [-92.18019, 46.838974]
		},
		"properties": {
			"title": "Duluth International Airport",
			"iata": "DLH",
			"size": "large"
		}
    },
	{
		"type": "Feature",
		"geometry": {
			"type": "Point", 
			"coordinates": [-93.64809, 41.532433]
		},
		"properties": {
			"title": "Des Moines International Airport",
			"iata": "DSM",
			"size": "large"
		}
    },
	{
		"type": "Feature",
		"geometry": {
			"type": "Point", 
			"coordinates": [-83.35605, 42.20781]
		},
		"properties": {
			"title": "Detroit Metropolitan Wayne County Airport",
			"iata": "DTW",
			"size": "large"
		}
    },
	{
		"type": "Feature",
		"geometry": {
			"type": "Point", 
			"coordinates": [-80.18203, 42.08314]
		},
		"properties": {
			"title": "Erie International Tom Ridge Field",
			"iata": "ERI",
			"size": "large"
		}
    },
	{
		"type": "Feature",
		"geometry": {
			"type": "Point", 
			"coordinates": [-74.17876, 40.68907]
		},
		"properties": {
			"title": "Newark Liberty International Airport",
			"iata": "EWR",
			"size": "large"
		}
    },
	{
		"type": "Feature",
		"geometry": {
			"type": "Point", 
			"coordinates": [-80.144905, 26.071491]
		},
		"properties": {
			"title": "Fort Lauderdale Hollywood International Airport",
			"iata": "FLL",
			"size": "large"
		}
    },
	{
		"type": "Feature",
		"geometry": {
			"type": "Point", 
			"coordinates": [-94.3589, 35.34124]
		},
		"properties": {
			"title": "Fort Smith Regional Airport",
			"iata": "FSM",
			"size": "large"
		}
    },
	{
		"type": "Feature",
		"geometry": {
			"type": "Point", 
			"coordinates": [-97.333336, 32.75]
		},
		"properties": {
			"title": "Fort Worth Meacham International Airport",
			"iata": "FTW",
			"size": "large"
		}
    },
	{
		"type": "Feature",
		"geometry": {
			"type": "Point", 
			"coordinates": [-85.18771, 40.98666]
		},
		"properties": {
			"title": "Fort Wayne International Airport",
			"iata": "FWA",
			"size": "large"
		}
    },
	{
		"type": "Feature",
		"geometry": {
			"type": "Point", 
			"coordinates": [-117.537636, 47.62515]
		},
		"properties": {
			"title": "Spokane International Airport",
			"iata": "GEG",
			"size": "large"
		}
    },
	{
		"type": "Feature",
		"geometry": {
			"type": "Point", 
			"coordinates": [-89.07203, 30.413284]
		},
		"properties": {
			"title": "Gulfport Biloxi International Airport",
			"iata": "GPT",
			"size": "large"
		}
    },
	{
		"type": "Feature",
		"geometry": {
			"type": "Point", 
			"coordinates": [-88.121895, 44.492847]
		},
		"properties": {
			"title": "Austin Straubel International Airport",
			"iata": "GRB",
			"size": "large"
		}
    },
	{
		"type": "Feature",
		"geometry": {
			"type": "Point", 
			"coordinates": [-79.9373, 36.105324]
		},
		"properties": {
			"title": "Piedmont Triad International Airport",
			"iata": "GSO",
			"size": "large"
		}
    },
	{
		"type": "Feature",
		"geometry": {
			"type": "Point", 
			"coordinates": [-82.21706, 34.890568]
		},
		"properties": {
			"title": "Greenville Spartanburg International Airport",
			"iata": "GSP",
			"size": "large"
		}
    },
	{
		"type": "Feature",
		"geometry": {
			"type": "Point", 
			"coordinates": [-92.83861, 47.38861]
		},
		"properties": {
			"title": "Chisholm Hibbing Airport",
			"iata": "HIB",
			"size": "large"
		}
    },
	{
		"type": "Feature",
		"geometry": {
			"type": "Point", 
			"coordinates": [-95.277016, 29.654512]
		},
		"properties": {
			"title": "William P Hobby Airport",
			"iata": "HOU",
			"size": "large"
		}
    },
	{
		"type": "Feature",
		"geometry": {
			"type": "Point", 
			"coordinates": [-86.77484, 34.64857]
		},
		"properties": {
			"title": "Huntsville International Carl T Jones Field",
			"iata": "HSV",
			"size": "large"
		}
    },
	{
		"type": "Feature",
		"geometry": {
			"type": "Point", 
			"coordinates": [-82.556114, 38.366943]
		},
		"properties": {
			"title": "Tri-State\/Milton J. Ferguson Field",
			"iata": "HTS",
			"size": "large"
		}
    },
	{
		"type": "Feature",
		"geometry": {
			"type": "Point", 
			"coordinates": [-77.44774, 38.95315]
		},
		"properties": {
			"title": "Washington Dulles International Airport",
			"iata": "IAD",
			"size": "large"
		}
    },
	{
		"type": "Feature",
		"geometry": {
			"type": "Point", 
			"coordinates": [-95.34, 29.983334]
		},
		"properties": {
			"title": "George Bush Intercontinental Houston Airport",
			"iata": "IAH",
			"size": "large"
		}
    },
	{
		"type": "Feature",
		"geometry": {
			"type": "Point", 
			"coordinates": [-97.428955, 37.653046]
		},
		"properties": {
			"title": "Wichita Mid Continent Airport",
			"iata": "ICT",
			"size": "large"
		}
    },
	{
		"type": "Feature",
		"geometry": {
			"type": "Point", 
			"coordinates": [-86.29805, 39.714516]
		},
		"properties": {
			"title": "Indianapolis International Airport",
			"iata": "IND",
			"size": "large"
		}
    },
	{
		"type": "Feature",
		"geometry": {
			"type": "Point", 
			"coordinates": [-90.07496, 32.309895]
		},
		"properties": {
			"title": "Jackson Evers International Airport",
			"iata": "JAN",
			"size": "large"
		}
    },
	{
		"type": "Feature",
		"geometry": {
			"type": "Point", 
			"coordinates": [-81.68306, 30.491657]
		},
		"properties": {
			"title": "Jacksonville International Airport",
			"iata": "JAX",
			"size": "large"
		}
    },
	{
		"type": "Feature",
		"geometry": {
			"type": "Point", 
			"coordinates": [-73.78817, 40.642334]
		},
		"properties": {
			"title": "John F Kennedy International Airport",
			"iata": "JFK",
			"size": "large"
		}
    },
	{
		"type": "Feature",
		"geometry": {
			"type": "Point", 
			"coordinates": [-94.49778, 37.149723]
		},
		"properties": {
			"title": "Joplin Regional Airport",
			"iata": "JLN",
			"size": "large"
		}
    },
	{
		"type": "Feature",
		"geometry": {
			"type": "Point", 
			"coordinates": [-115.1486, 36.086945]
		},
		"properties": {
			"title": "McCarran International Airport",
			"iata": "LAS",
			"size": "large"
		}
    },
	{
		"type": "Feature",
		"geometry": {
			"type": "Point", 
			"coordinates": [-118.40828, 33.943398]
		},
		"properties": {
			"title": "Los Angeles International Airport",
			"iata": "LAX",
			"size": "large"
		}
    },
	{
		"type": "Feature",
		"geometry": {
			"type": "Point", 
			"coordinates": [-101.8223, 33.65622]
		},
		"properties": {
			"title": "Lubbock Preston Smith International Airport",
			"iata": "LBB",
			"size": "large"
		}
    },
	{
		"type": "Feature",
		"geometry": {
			"type": "Point", 
			"coordinates": [-84.59792, 38.03762]
		},
		"properties": {
			"title": "Blue Grass Airport",
			"iata": "LEX",
			"size": "large"
		}
    },
	{
		"type": "Feature",
		"geometry": {
			"type": "Point", 
			"coordinates": [-91.99327, 30.20851]
		},
		"properties": {
			"title": "Lafayette Regional Airport",
			"iata": "LFT",
			"size": "large"
		}
    },
	{
		"type": "Feature",
		"geometry": {
			"type": "Point", 
			"coordinates": [-73.87162, 40.774254]
		},
		"properties": {
			"title": "La Guardia Airport",
			"iata": "LGA",
			"size": "large"
		}
    },
	{
		"type": "Feature",
		"geometry": {
			"type": "Point", 
			"coordinates": [-92.221375, 34.727432]
		},
		"properties": {
			"title": "Adams Field",
			"iata": "LIT",
			"size": "large"
		}
    },
	{
		"type": "Feature",
		"geometry": {
			"type": "Point", 
			"coordinates": [-84.090744, 43.53339]
		},
		"properties": {
			"title": "MBS International Airport",
			"iata": "MBS",
			"size": "large"
		}
    },
	{
		"type": "Feature",
		"geometry": {
			"type": "Point", 
			"coordinates": [-94.719925, 39.293808]
		},
		"properties": {
			"title": "Kansas City International Airport",
			"iata": "MCI",
			"size": "large"
		}
    },
	{
		"type": "Feature",
		"geometry": {
			"type": "Point", 
			"coordinates": [-81.308304, 28.432177]
		},
		"properties": {
			"title": "Orlando International Airport",
			"iata": "MCO",
			"size": "large"
		}
    },
	{
		"type": "Feature",
		"geometry": {
			"type": "Point", 
			"coordinates": [-87.74087, 41.788136]
		},
		"properties": {
			"title": "Chicago Midway International Airport",
			"iata": "MDW",
			"size": "large"
		}
    },
	{
		"type": "Feature",
		"geometry": {
			"type": "Point", 
			"coordinates": [-89.98226, 35.04458]
		},
		"properties": {
			"title": "Memphis International Airport",
			"iata": "MEM",
			"size": "large"
		}
    },
	{
		"type": "Feature",
		"geometry": {
			"type": "Point", 
			"coordinates": [-86.39029, 32.305042]
		},
		"properties": {
			"title": "Montgomery Regional (Dannelly Field) Airport",
			"iata": "MGM",
			"size": "large"
		}
    },
	{
		"type": "Feature",
		"geometry": {
			"type": "Point", 
			"coordinates": [-71.43844, 42.92786]
		},
		"properties": {
			"title": "Manchester Airport",
			"iata": "MHT",
			"size": "large"
		}
    },
	{
		"type": "Feature",
		"geometry": {
			"type": "Point", 
			"coordinates": [-80.27824, 25.796]
		},
		"properties": {
			"title": "Miami International Airport",
			"iata": "MIA",
			"size": "large"
		}
    },
	{
		"type": "Feature",
		"geometry": {
			"type": "Point", 
			"coordinates": [-87.90267, 42.948093]
		},
		"properties": {
			"title": "General Mitchell International Airport",
			"iata": "MKE",
			"size": "large"
		}
    },
	{
		"type": "Feature",
		"geometry": {
			"type": "Point", 
			"coordinates": [-90.50611, 41.453896]
		},
		"properties": {
			"title": "Quad City International Airport",
			"iata": "MLI",
			"size": "large"
		}
    },
	{
		"type": "Feature",
		"geometry": {
			"type": "Point", 
			"coordinates": [-92.043655, 32.51184]
		},
		"properties": {
			"title": "Monroe Regional Airport",
			"iata": "MLU",
			"size": "large"
		}
    },
	{
		"type": "Feature",
		"geometry": {
			"type": "Point", 
			"coordinates": [-88.24475, 30.681086]
		},
		"properties": {
			"title": "Mobile Regional Airport",
			"iata": "MOB",
			"size": "large"
		}
    },
	{
		"type": "Feature",
		"geometry": {
			"type": "Point", 
			"coordinates": [-89.3465, 43.136375]
		},
		"properties": {
			"title": "Dane County Regional Truax Field",
			"iata": "MSN",
			"size": "large"
		}
    },
	{
		"type": "Feature",
		"geometry": {
			"type": "Point", 
			"coordinates": [-93.21092, 44.883015]
		},
		"properties": {
			"title": "Minneapolis-St Paul International\/Wold-Chamberlain Airport",
			"iata": "MSP",
			"size": "large"
		}
    },
	{
		"type": "Feature",
		"geometry": {
			"type": "Point", 
			"coordinates": [-90.25639, 29.984564]
		},
		"properties": {
			"title": "Louis Armstrong New Orleans International Airport",
			"iata": "MSY",
			"size": "large"
		}
    },
	{
		"type": "Feature",
		"geometry": {
			"type": "Point", 
			"coordinates": [-78.92294, 33.682674]
		},
		"properties": {
			"title": "Myrtle Beach International Airport",
			"iata": "MYR",
			"size": "large"
		}
    },
	{
		"type": "Feature",
		"geometry": {
			"type": "Point", 
			"coordinates": [-122.21201, 37.71188]
		},
		"properties": {
			"title": "Metropolitan Oakland International Airport",
			"iata": "OAK",
			"size": "large"
		}
    },
	{
		"type": "Feature",
		"geometry": {
			"type": "Point", 
			"coordinates": [-97.59609, 35.39563]
		},
		"properties": {
			"title": "Will Rogers World Airport",
			"iata": "OKC",
			"size": "large"
		}
    },
	{
		"type": "Feature",
		"geometry": {
			"type": "Point", 
			"coordinates": [-117.59765, 34.06068]
		},
		"properties": {
			"title": "Ontario International Airport",
			"iata": "ONT",
			"size": "large"
		}
    },
	{
		"type": "Feature",
		"geometry": {
			"type": "Point", 
			"coordinates": [-87.90488, 41.976913]
		},
		"properties": {
			"title": "Chicago O'Hare International Airport",
			"iata": "ORD",
			"size": "large"
		}
    },
	{
		"type": "Feature",
		"geometry": {
			"type": "Point", 
			"coordinates": [-76.20629, 36.898582]
		},
		"properties": {
			"title": "Norfolk International Airport",
			"iata": "ORF",
			"size": "large"
		}
    },
	{
		"type": "Feature",
		"geometry": {
			"type": "Point", 
			"coordinates": [-80.09044, 26.688885]
		},
		"properties": {
			"title": "Palm Beach International Airport",
			"iata": "PBI",
			"size": "large"
		}
    },
	{
		"type": "Feature",
		"geometry": {
			"type": "Point", 
			"coordinates": [-122.5929, 45.588997]
		},
		"properties": {
			"title": "Portland International Airport",
			"iata": "PDX",
			"size": "large"
		}
    },
	{
		"type": "Feature",
		"geometry": {
			"type": "Point", 
			"coordinates": [-76.50282, 37.13033]
		},
		"properties": {
			"title": "Newport News Williamsburg International Airport",
			"iata": "PHF",
			"size": "large"
		}
    },
	{
		"type": "Feature",
		"geometry": {
			"type": "Point", 
			"coordinates": [-75.2433, 39.87641]
		},
		"properties": {
			"title": "Philadelphia International Airport",
			"iata": "PHL",
			"size": "large"
		}
    },
	{
		"type": "Feature",
		"geometry": {
			"type": "Point", 
			"coordinates": [-112.00016, 33.435036]
		},
		"properties": {
			"title": "Phoenix Sky Harbor International Airport",
			"iata": "PHX",
			"size": "large"
		}
    },
	{
		"type": "Feature",
		"geometry": {
			"type": "Point", 
			"coordinates": [-89.69012, 40.66643]
		},
		"properties": {
			"title": "Greater Peoria Regional Airport",
			"iata": "PIA",
			"size": "large"
		}
    },
	{
		"type": "Feature",
		"geometry": {
			"type": "Point", 
			"coordinates": [-80.25657, 40.49585]
		},
		"properties": {
			"title": "Pittsburgh International Airport",
			"iata": "PIT",
			"size": "large"
		}
    },
	{
		"type": "Feature",
		"geometry": {
			"type": "Point", 
			"coordinates": [-70.31031, 43.64749]
		},
		"properties": {
			"title": "Portland International Jetport Airport",
			"iata": "PWM",
			"size": "large"
		}
    },
	{
		"type": "Feature",
		"geometry": {
			"type": "Point", 
			"coordinates": [-78.79086, 35.873592]
		},
		"properties": {
			"title": "Raleigh Durham International Airport",
			"iata": "RDU",
			"size": "large"
		}
    },
	{
		"type": "Feature",
		"geometry": {
			"type": "Point", 
			"coordinates": [-89.222115, 42.30364]
		},
		"properties": {
			"title": "Chicago Rockford International Airport",
			"iata": "RFD",
			"size": "large"
		}
    },
	{
		"type": "Feature",
		"geometry": {
			"type": "Point", 
			"coordinates": [-77.3225, 37.50611]
		},
		"properties": {
			"title": "Richmond International Airport",
			"iata": "RIC",
			"size": "large"
		}
    },
	{
		"type": "Feature",
		"geometry": {
			"type": "Point", 
			"coordinates": [-119.775696, 39.505783]
		},
		"properties": {
			"title": "Reno Tahoe International Airport",
			"iata": "RNO",
			"size": "large"
		}
    },
	{
		"type": "Feature",
		"geometry": {
			"type": "Point", 
			"coordinates": [-79.97038, 37.32051]
		},
		"properties": {
			"title": "Roanoke Regional Woodrum Field",
			"iata": "ROA",
			"size": "large"
		}
    },
	{
		"type": "Feature",
		"geometry": {
			"type": "Point", 
			"coordinates": [-77.66543, 43.127975]
		},
		"properties": {
			"title": "Greater Rochester International Airport",
			"iata": "ROC",
			"size": "large"
		}
    },
	{
		"type": "Feature",
		"geometry": {
			"type": "Point", 
			"coordinates": [-92.48977, 43.910793]
		},
		"properties": {
			"title": "Rochester International Airport",
			"iata": "RST",
			"size": "large"
		}
    },
	{
		"type": "Feature",
		"geometry": {
			"type": "Point", 
			"coordinates": [-81.75433, 26.542835]
		},
		"properties": {
			"title": "Southwest Florida International Airport",
			"iata": "RSW",
			"size": "large"
		}
    },
	{
		"type": "Feature",
		"geometry": {
			"type": "Point", 
			"coordinates": [-117.19731, 32.731937]
		},
		"properties": {
			"title": "San Diego International Airport",
			"iata": "SAN",
			"size": "large"
		}
    },
	{
		"type": "Feature",
		"geometry": {
			"type": "Point", 
			"coordinates": [-98.47264, 29.524937]
		},
		"properties": {
			"title": "San Antonio International Airport",
			"iata": "SAT",
			"size": "large"
		}
    },
	{
		"type": "Feature",
		"geometry": {
			"type": "Point", 
			"coordinates": [-81.21059, 32.1358]
		},
		"properties": {
			"title": "Savannah Hilton Head International Airport",
			"iata": "SAV",
			"size": "large"
		}
    },
	{
		"type": "Feature",
		"geometry": {
			"type": "Point", 
			"coordinates": [-86.31335, 41.700554]
		},
		"properties": {
			"title": "South Bend Regional Airport",
			"iata": "SBN",
			"size": "large"
		}
    },
	{
		"type": "Feature",
		"geometry": {
			"type": "Point", 
			"coordinates": [-85.74179, 38.186375]
		},
		"properties": {
			"title": "Louisville International Standiford Field",
			"iata": "SDF",
			"size": "large"
		}
    },
	{
		"type": "Feature",
		"geometry": {
			"type": "Point", 
			"coordinates": [-122.301735, 47.44384]
		},
		"properties": {
			"title": "Seattle Tacoma International Airport",
			"iata": "SEA",
			"size": "large"
		}
    },
	{
		"type": "Feature",
		"geometry": {
			"type": "Point", 
			"coordinates": [-81.2432, 28.775118]
		},
		"properties": {
			"title": "Orlando Sanford International Airport",
			"iata": "SFB",
			"size": "large"
		}
    },
	{
		"type": "Feature",
		"geometry": {
			"type": "Point", 
			"coordinates": [-122.38988, 37.615215]
		},
		"properties": {
			"title": "San Francisco International Airport",
			"iata": "SFO",
			"size": "large"
		}
    },
	{
		"type": "Feature",
		"geometry": {
			"type": "Point", 
			"coordinates": [-93.38226, 37.24237]
		},
		"properties": {
			"title": "Springfield Branson National Airport",
			"iata": "SGF",
			"size": "large"
		}
    },
	{
		"type": "Feature",
		"geometry": {
			"type": "Point", 
			"coordinates": [-93.828384, 32.45471]
		},
		"properties": {
			"title": "Shreveport Regional Airport",
			"iata": "SHV",
			"size": "large"
		}
    },
	{
		"type": "Feature",
		"geometry": {
			"type": "Point", 
			"coordinates": [-121.92638, 37.366737]
		},
		"properties": {
			"title": "Norman Y. Mineta San Jose International Airport",
			"iata": "SJC",
			"size": "large"
		}
    },
	{
		"type": "Feature",
		"geometry": {
			"type": "Point", 
			"coordinates": [-111.980675, 40.785645]
		},
		"properties": {
			"title": "Salt Lake City International Airport",
			"iata": "SLC",
			"size": "large"
		}
    },
	{
		"type": "Feature",
		"geometry": {
			"type": "Point", 
			"coordinates": [-121.5937, 38.692284]
		},
		"properties": {
			"title": "Sacramento International Airport",
			"iata": "SMF",
			"size": "large"
		}
    },
	{
		"type": "Feature",
		"geometry": {
			"type": "Point", 
			"coordinates": [-117.860535, 33.680202]
		},
		"properties": {
			"title": "John Wayne Airport-Orange County Airport",
			"iata": "SNA",
			"size": "large"
		}
    },
	{
		"type": "Feature",
		"geometry": {
			"type": "Point", 
			"coordinates": [-89.67889, 39.844166]
		},
		"properties": {
			"title": "Abraham Lincoln Capital Airport",
			"iata": "SPI",
			"size": "large"
		}
    },
	{
		"type": "Feature",
		"geometry": {
			"type": "Point", 
			"coordinates": [-98.49194, 33.988335]
		},
		"properties": {
			"title": "Sheppard Air Force Base-Wichita Falls Municipal Airport",
			"iata": "SPS",
			"size": "large"
		}
    },
	{
		"type": "Feature",
		"geometry": {
			"type": "Point", 
			"coordinates": [-82.55328, 27.38748]
		},
		"properties": {
			"title": "Sarasota Bradenton International Airport",
			"iata": "SRQ",
			"size": "large"
		}
    },
	{
		"type": "Feature",
		"geometry": {
			"type": "Point", 
			"coordinates": [-90.36587, 38.74228]
		},
		"properties": {
			"title": "Lambert St Louis International Airport",
			"iata": "STL",
			"size": "large"
		}
    },
	{
		"type": "Feature",
		"geometry": {
			"type": "Point", 
			"coordinates": [-96.38417, 42.401943]
		},
		"properties": {
			"title": "Sioux Gateway Col. Bud Day Field",
			"iata": "SUX",
			"size": "large"
		}
    },
	{
		"type": "Feature",
		"geometry": {
			"type": "Point", 
			"coordinates": [-76.11223, 43.113983]
		},
		"properties": {
			"title": "Syracuse Hancock International Airport",
			"iata": "SYR",
			"size": "large"
		}
    },
	{
		"type": "Feature",
		"geometry": {
			"type": "Point", 
			"coordinates": [-84.34444, 30.395782]
		},
		"properties": {
			"title": "Tallahassee Regional Airport",
			"iata": "TLH",
			"size": "large"
		}
    },
	{
		"type": "Feature",
		"geometry": {
			"type": "Point", 
			"coordinates": [-83.8069, 41.5925]
		},
		"properties": {
			"title": "Toledo Express Airport",
			"iata": "TOL",
			"size": "large"
		}
    },
	{
		"type": "Feature",
		"geometry": {
			"type": "Point", 
			"coordinates": [-82.535416, 27.97987]
		},
		"properties": {
			"title": "Tampa International Airport",
			"iata": "TPA",
			"size": "large"
		}
    },
	{
		"type": "Feature",
		"geometry": {
			"type": "Point", 
			"coordinates": [-82.40785, 36.48111]
		},
		"properties": {
			"title": "Tri Cities Regional Tn Va Airport",
			"iata": "TRI",
			"size": "large"
		}
    },
	{
		"type": "Feature",
		"geometry": {
			"type": "Point", 
			"coordinates": [-95.8901, 36.189808]
		},
		"properties": {
			"title": "Tulsa International Airport",
			"iata": "TUL",
			"size": "large"
		}
    },
	{
		"type": "Feature",
		"geometry": {
			"type": "Point", 
			"coordinates": [-110.93737, 32.12069]
		},
		"properties": {
			"title": "Tucson International Airport",
			"iata": "TUS",
			"size": "large"
		}
    },
	{
		"type": "Feature",
		"geometry": {
			"type": "Point", 
			"coordinates": [-83.98973, 35.80565]
		},
		"properties": {
			"title": "McGhee Tyson Airport",
			"iata": "TYS",
			"size": "large"
		}
    },
	{
		"type": "Feature",
		"geometry": {
			"type": "Point", 
			"coordinates": [-86.54946, 30.495913]
		},
		"properties": {
			"title": "Eglin Air Force Base",
			"iata": "VPS",
			"size": "large"
		}
    },
	{
		"type": "Feature",
		"geometry": {
			"type": "Point", 
			"coordinates": [19.71328, 41.419132]
		},
		"properties": {
			"title": "Tirana International Airport Mother Teresa",
			"iata": "TIA",
			"size": "large"
		}
    },
	{
		"type": "Feature",
		"geometry": {
			"type": "Point", 
			"coordinates": [27.515545, 42.56745]
		},
		"properties": {
			"title": "Burgas Airport",
			"iata": "BOJ",
			"size": "large"
		}
    },
	{
		"type": "Feature",
		"geometry": {
			"type": "Point", 
			"coordinates": [24.716667, 42.3]
		},
		"properties": {
			"title": "Plovdiv International Airport",
			"iata": "PDV",
			"size": "large"
		}
    },
	{
		"type": "Feature",
		"geometry": {
			"type": "Point", 
			"coordinates": [23.41443, 42.688343]
		},
		"properties": {
			"title": "Sofia Airport",
			"iata": "SOF",
			"size": "large"
		}
    },
	{
		"type": "Feature",
		"geometry": {
			"type": "Point", 
			"coordinates": [27.829096, 43.23726]
		},
		"properties": {
			"title": "Varna Airport",
			"iata": "VAR",
			"size": "large"
		}
    },
	{
		"type": "Feature",
		"geometry": {
			"type": "Point", 
			"coordinates": [33.62599, 34.880867]
		},
		"properties": {
			"title": "Larnaca International Airport",
			"iata": "LCA",
			"size": "large"
		}
    },
	{
		"type": "Feature",
		"geometry": {
			"type": "Point", 
			"coordinates": [32.489105, 34.71155]
		},
		"properties": {
			"title": "Paphos International Airport",
			"iata": "PFO",
			"size": "large"
		}
    },
	{
		"type": "Feature",
		"geometry": {
			"type": "Point", 
			"coordinates": [16.06152, 45.733242]
		},
		"properties": {
			"title": "Zagreb Airport",
			"iata": "ZAG",
			"size": "large"
		}
    },
	{
		"type": "Feature",
		"geometry": {
			"type": "Point", 
			"coordinates": [-0.557381, 38.287098]
		},
		"properties": {
			"title": "Alicante International Airport",
			"iata": "ALC",
			"size": "large"
		}
    },
	{
		"type": "Feature",
		"geometry": {
			"type": "Point", 
			"coordinates": [2.07593, 41.30303]
		},
		"properties": {
			"title": "Barcelona International Airport",
			"iata": "BCN",
			"size": "large"
		}
    },
	{
		"type": "Feature",
		"geometry": {
			"type": "Point", 
			"coordinates": [-3.570209, 40.46515]
		},
		"properties": {
			"title": "Madrid Barajas International Airport",
			"iata": "MAD",
			"size": "large"
		}
    },
	{
		"type": "Feature",
		"geometry": {
			"type": "Point", 
			"coordinates": [2.730388, 39.547653]
		},
		"properties": {
			"title": "Palma De Mallorca Airport",
			"iata": "PMI",
			"size": "large"
		}
    },
	{
		"type": "Feature",
		"geometry": {
			"type": "Point", 
			"coordinates": [-8.420327, 42.897316]
		},
		"properties": {
			"title": "Santiago de Compostela Airport",
			"iata": "SCQ",
			"size": "large"
		}
    },
	{
		"type": "Feature",
		"geometry": {
			"type": "Point", 
			"coordinates": [1.374321, 43.63007]
		},
		"properties": {
			"title": "Toulouse-Blagnac Airport",
			"iata": "TLS",
			"size": "large"
		}
    },
	{
		"type": "Feature",
		"geometry": {
			"type": "Point", 
			"coordinates": [1.533333, 45.166668]
		},
		"properties": {
			"title": "Brive-La Roche Airport",
			"iata": "BVE",
			"size": "large"
		}
    },
	{
		"type": "Feature",
		"geometry": {
			"type": "Point", 
			"coordinates": [5.222137, 43.44178]
		},
		"properties": {
			"title": "Marseille Provence Airport",
			"iata": "MRS",
			"size": "large"
		}
    },
	{
		"type": "Feature",
		"geometry": {
			"type": "Point", 
			"coordinates": [0.726584, 47.432236]
		},
		"properties": {
			"title": "Tours-Val-de-Loire Airport",
			"iata": "TUF",
			"size": "large"
		}
    },
	{
		"type": "Feature",
		"geometry": {
			"type": "Point", 
			"coordinates": [2.567023, 49.003197]
		},
		"properties": {
			"title": "Charles de Gaulle International Airport",
			"iata": "CDG",
			"size": "large"
		}
    },
	{
		"type": "Feature",
		"geometry": {
			"type": "Point", 
			"coordinates": [2.3597, 48.728283]
		},
		"properties": {
			"title": "Paris-Orly Airport",
			"iata": "ORY",
			"size": "large"
		}
    },
	{
		"type": "Feature",
		"geometry": {
			"type": "Point", 
			"coordinates": [23.946486, 37.93635]
		},
		"properties": {
			"title": "Eleftherios Venizelos International Airport",
			"iata": "ATH",
			"size": "large"
		}
    },
	{
		"type": "Feature",
		"geometry": {
			"type": "Point", 
			"coordinates": [25.174192, 35.33663]
		},
		"properties": {
			"title": "Heraklion International Nikos Kazantzakis Airport",
			"iata": "HER",
			"size": "large"
		}
    },
	{
		"type": "Feature",
		"geometry": {
			"type": "Point", 
			"coordinates": [22.972221, 40.520832]
		},
		"properties": {
			"title": "Thessaloniki Macedonia International Airport",
			"iata": "SKG",
			"size": "large"
		}
    },
	{
		"type": "Feature",
		"geometry": {
			"type": "Point", 
			"coordinates": [19.261621, 47.433037]
		},
		"properties": {
			"title": "Budapest Listz Ferenc international Airport",
			"iata": "BUD",
			"size": "large"
		}
    },
	{
		"type": "Feature",
		"geometry": {
			"type": "Point", 
			"coordinates": [16.76391, 41.13388]
		},
		"properties": {
			"title": "Bari \/ Palese International Airport",
			"iata": "BRI",
			"size": "large"
		}
    },
	{
		"type": "Feature",
		"geometry": {
			"type": "Point", 
			"coordinates": [15.065877, 37.47066]
		},
		"properties": {
			"title": "Catania \/ Fontanarossa Airport",
			"iata": "CTA",
			"size": "large"
		}
    },
	{
		"type": "Feature",
		"geometry": {
			"type": "Point", 
			"coordinates": [13.104779, 38.186523]
		},
		"properties": {
			"title": "Palermo \/ Punta Raisi Airport",
			"iata": "PMO",
			"size": "large"
		}
    },
	{
		"type": "Feature",
		"geometry": {
			"type": "Point", 
			"coordinates": [9.060673, 39.254333]
		},
		"properties": {
			"title": "Cagliari \/ Elmas Airport",
			"iata": "CAG",
			"size": "large"
		}
    },
	{
		"type": "Feature",
		"geometry": {
			"type": "Point", 
			"coordinates": [8.71237, 45.627403]
		},
		"properties": {
			"title": "Malpensa International Airport",
			"iata": "MXP",
			"size": "large"
		}
    },
	{
		"type": "Feature",
		"geometry": {
			"type": "Point", 
			"coordinates": [9.698713, 45.665314]
		},
		"properties": {
			"title": "Bergamo \/ Orio Al Serio Airport",
			"iata": "BGY",
			"size": "large"
		}
    },
	{
		"type": "Feature",
		"geometry": {
			"type": "Point", 
			"coordinates": [7.643049, 45.191456]
		},
		"properties": {
			"title": "Torino \/ Caselle International Airport",
			"iata": "TRN",
			"size": "large"
		}
    },
	{
		"type": "Feature",
		"geometry": {
			"type": "Point", 
			"coordinates": [8.85081, 44.415066]
		},
		"properties": {
			"title": "Genova \/ Sestri Cristoforo Colombo Airport",
			"iata": "GOA",
			"size": "large"
		}
    },
	{
		"type": "Feature",
		"geometry": {
			"type": "Point", 
			"coordinates": [9.279157, 45.460957]
		},
		"properties": {
			"title": "Linate Airport",
			"iata": "LIN",
			"size": "large"
		}
    },
	{
		"type": "Feature",
		"geometry": {
			"type": "Point", 
			"coordinates": [11.293289, 44.529266]
		},
		"properties": {
			"title": "Bologna \/ Borgo Panigale Airport",
			"iata": "BLQ",
			"size": "large"
		}
    },
	{
		"type": "Feature",
		"geometry": {
			"type": "Point", 
			"coordinates": [12.204444, 45.655113]
		},
		"properties": {
			"title": "Treviso \/ Sant'Angelo Airport",
			"iata": "TSF",
			"size": "large"
		}
    },
	{
		"type": "Feature",
		"geometry": {
			"type": "Point", 
			"coordinates": [10.906796, 45.40233]
		},
		"properties": {
			"title": "Verona \/ Villafranca Airport",
			"iata": "VRN",
			"size": "large"
		}
    },
	{
		"type": "Feature",
		"geometry": {
			"type": "Point", 
			"coordinates": [12.337947, 45.502285]
		},
		"properties": {
			"title": "Venezia \/ Tessera -  Marco Polo Airport",
			"iata": "VCE",
			"size": "large"
		}
    },
	{
		"type": "Feature",
		"geometry": {
			"type": "Point", 
			"coordinates": [12.590987, 41.799065]
		},
		"properties": {
			"title": "Ciampino Airport",
			"iata": "CIA",
			"size": "large"
		}
    },
	{
		"type": "Feature",
		"geometry": {
			"type": "Point", 
			"coordinates": [12.250346, 41.794594]
		},
		"properties": {
			"title": "Leonardo Da Vinci (Fiumicino) International Airport",
			"iata": "FCO",
			"size": "large"
		}
    },
	{
		"type": "Feature",
		"geometry": {
			"type": "Point", 
			"coordinates": [10.399915, 43.69871]
		},
		"properties": {
			"title": "Pisa \/ San Giusto - Galileo Galilei International Airport",
			"iata": "PSA",
			"size": "large"
		}
    },
	{
		"type": "Feature",
		"geometry": {
			"type": "Point", 
			"coordinates": [14.266638, 50.10619]
		},
		"properties": {
			"title": "Ruzyn? International Airport",
			"iata": "PRG",
			"size": "large"
		}
    },
	{
		"type": "Feature",
		"geometry": {
			"type": "Point", 
			"coordinates": [34.870743, 32.000454]
		},
		"properties": {
			"title": "Ben Gurion International Airport",
			"iata": "TLV",
			"size": "large"
		}
    },
	{
		"type": "Feature",
		"geometry": {
			"type": "Point", 
			"coordinates": [34.9339, 29.952015]
		},
		"properties": {
			"title": "Ovda International Airport",
			"iata": "VDA",
			"size": "large"
		}
    },
	{
		"type": "Feature",
		"geometry": {
			"type": "Point", 
			"coordinates": [14.495401, 35.849777]
		},
		"properties": {
			"title": "Luqa Airport",
			"iata": "MLA",
			"size": "large"
		}
    },
	{
		"type": "Feature",
		"geometry": {
			"type": "Point", 
			"coordinates": [16.563583, 48.11972]
		},
		"properties": {
			"title": "Vienna International Airport",
			"iata": "VIE",
			"size": "large"
		}
    },
	{
		"type": "Feature",
		"geometry": {
			"type": "Point", 
			"coordinates": [-7.968545, 37.020645]
		},
		"properties": {
			"title": "Faro Airport",
			"iata": "FAO",
			"size": "large"
		}
    },
	{
		"type": "Feature",
		"geometry": {
			"type": "Point", 
			"coordinates": [-27.08757, 38.754074]
		},
		"properties": {
			"title": "Lajes Field",
			"iata": "TER",
			"size": "large"
		}
    },
	{
		"type": "Feature",
		"geometry": {
			"type": "Point", 
			"coordinates": [-9.128165, 38.770042]
		},
		"properties": {
			"title": "Lisbon Portela Airport",
			"iata": "LIS",
			"size": "large"
		}
    },
	{
		"type": "Feature",
		"geometry": {
			"type": "Point", 
			"coordinates": [18.336065, 43.826687]
		},
		"properties": {
			"title": "Sarajevo International Airport",
			"iata": "SJJ",
			"size": "large"
		}
    },
	{
		"type": "Feature",
		"geometry": {
			"type": "Point", 
			"coordinates": [26.077063, 44.571156]
		},
		"properties": {
			"title": "Henri Coand? International Airport",
			"iata": "OTP",
			"size": "large"
		}
    },
	{
		"type": "Feature",
		"geometry": {
			"type": "Point", 
			"coordinates": [6.105774, 46.229633]
		},
		"properties": {
			"title": "Geneva Cointrin International Airport",
			"iata": "GVA",
			"size": "large"
		}
    },
	{
		"type": "Feature",
		"geometry": {
			"type": "Point", 
			"coordinates": [32.993145, 40.11494]
		},
		"properties": {
			"title": "Esenbo?a International Airport",
			"iata": "ESB",
			"size": "large"
		}
    },
	{
		"type": "Feature",
		"geometry": {
			"type": "Point", 
			"coordinates": [35.29736, 36.98503]
		},
		"properties": {
			"title": "Adana Airport",
			"iata": "ADA",
			"size": "large"
		}
    },
	{
		"type": "Feature",
		"geometry": {
			"type": "Point", 
			"coordinates": [30.80135, 36.89928]
		},
		"properties": {
			"title": "Antalya International Airport",
			"iata": "AYT",
			"size": "large"
		}
    },
	{
		"type": "Feature",
		"geometry": {
			"type": "Point", 
			"coordinates": [37.473747, 36.944935]
		},
		"properties": {
			"title": "Gaziantep International Airport",
			"iata": "GZT",
			"size": "large"
		}
    },
	{
		"type": "Feature",
		"geometry": {
			"type": "Point", 
			"coordinates": [34.716667, 38.63333]
		},
		"properties": {
			"title": "Nev?ehir Kapadokya International Airport",
			"iata": "NAV",
			"size": "large"
		}
    },
	{
		"type": "Feature",
		"geometry": {
			"type": "Point", 
			"coordinates": [27.147594, 38.294403]
		},
		"properties": {
			"title": "Adnan Menderes International Airport",
			"iata": "ADB",
			"size": "large"
		}
    },
	{
		"type": "Feature",
		"geometry": {
			"type": "Point", 
			"coordinates": [28.794546, 36.717552]
		},
		"properties": {
			"title": "Dalaman International Airport",
			"iata": "DLM",
			"size": "large"
		}
    },
	{
		"type": "Feature",
		"geometry": {
			"type": "Point", 
			"coordinates": [41.17361, 39.955555]
		},
		"properties": {
			"title": "Erzurum International Airport",
			"iata": "ERZ",
			"size": "large"
		}
    },
	{
		"type": "Feature",
		"geometry": {
			"type": "Point", 
			"coordinates": [39.78168, 40.99419]
		},
		"properties": {
			"title": "Trabzon International Airport",
			"iata": "TZX",
			"size": "large"
		}
    },
	{
		"type": "Feature",
		"geometry": {
			"type": "Point", 
			"coordinates": [27.672781, 37.243954]
		},
		"properties": {
			"title": "Milas Bodrum International Airport",
			"iata": "BJV",
			"size": "large"
		}
    },
	{
		"type": "Feature",
		"geometry": {
			"type": "Point", 
			"coordinates": [20.306944, 44.819443]
		},
		"properties": {
			"title": "Belgrade Nikola Tesla Airport",
			"iata": "BEG",
			"size": "large"
		}
    },
	{
		"type": "Feature",
		"geometry": {
			"type": "Point", 
			"coordinates": [19.246023, 42.368023]
		},
		"properties": {
			"title": "Podgorica Airport",
			"iata": "TGD",
			"size": "large"
		}
    },
	{
		"type": "Feature",
		"geometry": {
			"type": "Point", 
			"coordinates": [-76.77816, 17.93775]
		},
		"properties": {
			"title": "Norman Manley International Airport",
			"iata": "KIN",
			"size": "large"
		}
    },
	{
		"type": "Feature",
		"geometry": {
			"type": "Point", 
			"coordinates": [-99.75459, 16.762403]
		},
		"properties": {
			"title": "General Juan N Alvarez International Airport",
			"iata": "ACA",
			"size": "large"
		}
    },
	{
		"type": "Feature",
		"geometry": {
			"type": "Point", 
			"coordinates": [-103.29921, 20.525198]
		},
		"properties": {
			"title": "Don Miguel Hidalgo Y Costilla International Airport",
			"iata": "GDL",
			"size": "large"
		}
    },
	{
		"type": "Feature",
		"geometry": {
			"type": "Point", 
			"coordinates": [-111.051704, 29.089905]
		},
		"properties": {
			"title": "General Ignacio P. Garcia International Airport",
			"iata": "HMO",
			"size": "large"
		}
    },
	{
		"type": "Feature",
		"geometry": {
			"type": "Point", 
			"coordinates": [-99.07278, 19.435278]
		},
		"properties": {
			"title": "Licenciado Benito Juarez International Airport",
			"iata": "MEX",
			"size": "large"
		}
    },
	{
		"type": "Feature",
		"geometry": {
			"type": "Point", 
			"coordinates": [-100.114395, 25.77657]
		},
		"properties": {
			"title": "General Mariano Escobedo International Airport",
			"iata": "MTY",
			"size": "large"
		}
    },
	{
		"type": "Feature",
		"geometry": {
			"type": "Point", 
			"coordinates": [-109.717285, 23.162354]
		},
		"properties": {
			"title": "Los Cabos International Airport",
			"iata": "SJD",
			"size": "large"
		}
    },
	{
		"type": "Feature",
		"geometry": {
			"type": "Point", 
			"coordinates": [-79.38764, 9.066897]
		},
		"properties": {
			"title": "Tocumen International Airport",
			"iata": "PTY",
			"size": "large"
		}
    },
	{
		"type": "Feature",
		"geometry": {
			"type": "Point", 
			"coordinates": [-81.43694, 23.039896]
		},
		"properties": {
			"title": "Juan Gualberto Gomez International Airport",
			"iata": "VRA",
			"size": "large"
		}
    },
	{
		"type": "Feature",
		"geometry": {
			"type": "Point", 
			"coordinates": [-81.35779, 19.29637]
		},
		"properties": {
			"title": "Owen Roberts International Airport",
			"iata": "GCM",
			"size": "large"
		}
    },
	{
		"type": "Feature",
		"geometry": {
			"type": "Point", 
			"coordinates": [-77.463776, 25.048223]
		},
		"properties": {
			"title": "Lynden Pindling International Airport",
			"iata": "NAS",
			"size": "large"
		}
    },
	{
		"type": "Feature",
		"geometry": {
			"type": "Point", 
			"coordinates": [-88.308334, 17.539167]
		},
		"properties": {
			"title": "Philip S. W. Goldson International Airport",
			"iata": "BZE",
			"size": "large"
		}
    },
	{
		"type": "Feature",
		"geometry": {
			"type": "Point", 
			"coordinates": [174.78352, -37.004787]
		},
		"properties": {
			"title": "Auckland International Airport",
			"iata": "AKL",
			"size": "large"
		}
    },
	{
		"type": "Feature",
		"geometry": {
			"type": "Point", 
			"coordinates": [172.5389, -43.488655]
		},
		"properties": {
			"title": "Christchurch International Airport",
			"iata": "CHC",
			"size": "large"
		}
    },
	{
		"type": "Feature",
		"geometry": {
			"type": "Point", 
			"coordinates": [174.81216, -41.329037]
		},
		"properties": {
			"title": "Wellington International Airport",
			"iata": "WLG",
			"size": "large"
		}
    },
	{
		"type": "Feature",
		"geometry": {
			"type": "Point", 
			"coordinates": [50.62605, 26.26918]
		},
		"properties": {
			"title": "Bahrain International Airport",
			"iata": "BAH",
			"size": "large"
		}
    },
	{
		"type": "Feature",
		"geometry": {
			"type": "Point", 
			"coordinates": [49.79778, 26.471111]
		},
		"properties": {
			"title": "King Fahd International Airport",
			"iata": "DMM",
			"size": "large"
		}
    },
	{
		"type": "Feature",
		"geometry": {
			"type": "Point", 
			"coordinates": [50.17475, 26.39286]
		},
		"properties": {
			"title": "King Abdulaziz Air Base",
			"iata": "DHA",
			"size": "large"
		}
    },
	{
		"type": "Feature",
		"geometry": {
			"type": "Point", 
			"coordinates": [39.150578, 21.670233]
		},
		"properties": {
			"title": "King Abdulaziz International Airport",
			"iata": "JED",
			"size": "large"
		}
    },
	{
		"type": "Feature",
		"geometry": {
			"type": "Point", 
			"coordinates": [39.698967, 24.544369]
		},
		"properties": {
			"title": "Prince Mohammad Bin Abdulaziz Airport",
			"iata": "MED",
			"size": "large"
		}
    },
	{
		"type": "Feature",
		"geometry": {
			"type": "Point", 
			"coordinates": [46.702877, 24.95929]
		},
		"properties": {
			"title": "King Khaled International Airport",
			"iata": "RUH",
			"size": "large"
		}
    },
	{
		"type": "Feature",
		"geometry": {
			"type": "Point", 
			"coordinates": [51.1548, 35.40863]
		},
		"properties": {
			"title": "Imam Khomeini International Airport",
			"iata": "IKA",
			"size": "large"
		}
    },
	{
		"type": "Feature",
		"geometry": {
			"type": "Point", 
			"coordinates": [51.32187, 35.691532]
		},
		"properties": {
			"title": "Mehrabad International Airport",
			"iata": "THR",
			"size": "large"
		}
    },
	{
		"type": "Feature",
		"geometry": {
			"type": "Point", 
			"coordinates": [59.64165, 36.227173]
		},
		"properties": {
			"title": "Mashhad International Airport",
			"iata": "MHD",
			"size": "large"
		}
    },
	{
		"type": "Feature",
		"geometry": {
			"type": "Point", 
			"coordinates": [52.58997, 29.54613]
		},
		"properties": {
			"title": "Shiraz Shahid Dastghaib International Airport",
			"iata": "SYZ",
			"size": "large"
		}
    },
	{
		"type": "Feature",
		"geometry": {
			"type": "Point", 
			"coordinates": [46.244274, 38.12285]
		},
		"properties": {
			"title": "Tabriz International Airport",
			"iata": "TBZ",
			"size": "large"
		}
    },
	{
		"type": "Feature",
		"geometry": {
			"type": "Point", 
			"coordinates": [35.98932, 31.722534]
		},
		"properties": {
			"title": "Queen Alia International Airport",
			"iata": "AMM",
			"size": "large"
		}
    },
	{
		"type": "Feature",
		"geometry": {
			"type": "Point", 
			"coordinates": [47.971252, 29.240116]
		},
		"properties": {
			"title": "Kuwait International Airport",
			"iata": "KWI",
			"size": "large"
		}
    },
	{
		"type": "Feature",
		"geometry": {
			"type": "Point", 
			"coordinates": [35.49308, 33.826073]
		},
		"properties": {
			"title": "Beirut Rafic Hariri International Airport",
			"iata": "BEY",
			"size": "large"
		}
    },
	{
		"type": "Feature",
		"geometry": {
			"type": "Point", 
			"coordinates": [54.645973, 24.426912]
		},
		"properties": {
			"title": "Abu Dhabi International Airport",
			"iata": "AUH",
			"size": "large"
		}
    },
	{
		"type": "Feature",
		"geometry": {
			"type": "Point", 
			"coordinates": [55.352917, 25.248665]
		},
		"properties": {
			"title": "Dubai International Airport",
			"iata": "DXB",
			"size": "large"
		}
    },
	{
		"type": "Feature",
		"geometry": {
			"type": "Point", 
			"coordinates": [55.175278, 24.918056]
		},
		"properties": {
			"title": "Al Maktoum International Airport",
			"iata": "DWC",
			"size": "large"
		}
    },
	{
		"type": "Feature",
		"geometry": {
			"type": "Point", 
			"coordinates": [55.52029, 25.320873]
		},
		"properties": {
			"title": "Sharjah International Airport",
			"iata": "SHJ",
			"size": "large"
		}
    },
	{
		"type": "Feature",
		"geometry": {
			"type": "Point", 
			"coordinates": [58.29022, 23.588078]
		},
		"properties": {
			"title": "Muscat International Airport",
			"iata": "MCT",
			"size": "large"
		}
    },
	{
		"type": "Feature",
		"geometry": {
			"type": "Point", 
			"coordinates": [73.1051, 33.609707]
		},
		"properties": {
			"title": "Benazir Bhutto International Airport",
			"iata": "ISB",
			"size": "large"
		}
    },
	{
		"type": "Feature",
		"geometry": {
			"type": "Point", 
			"coordinates": [44.230137, 33.26846]
		},
		"properties": {
			"title": "Baghdad International Airport",
			"iata": "SDA",
			"size": "large"
		}
    },
	{
		"type": "Feature",
		"geometry": {
			"type": "Point", 
			"coordinates": [47.79139, 30.555555]
		},
		"properties": {
			"title": "Basrah International Airport",
			"iata": "BSR",
			"size": "large"
		}
    },
	{
		"type": "Feature",
		"geometry": {
			"type": "Point", 
			"coordinates": [37.227074, 36.185352]
		},
		"properties": {
			"title": "Aleppo International Airport",
			"iata": "ALP",
			"size": "large"
		}
    },
	{
		"type": "Feature",
		"geometry": {
			"type": "Point", 
			"coordinates": [36.51249, 33.41117]
		},
		"properties": {
			"title": "Damascus International Airport",
			"iata": "DAM",
			"size": "large"
		}
    },
	{
		"type": "Feature",
		"geometry": {
			"type": "Point", 
			"coordinates": [35.943993, 35.407352]
		},
		"properties": {
			"title": "Bassel Al-Assad International Airport",
			"iata": "LTK",
			"size": "large"
		}
    },
	{
		"type": "Feature",
		"geometry": {
			"type": "Point", 
			"coordinates": [51.558067, 25.267569]
		},
		"properties": {
			"title": "Doha International Airport",
			"iata": "DOH",
			"size": "large"
		}
    },
	{
		"type": "Feature",
		"geometry": {
			"type": "Point", 
			"coordinates": [-147.8668, 64.818214]
		},
		"properties": {
			"title": "Fairbanks International Airport",
			"iata": "FAI",
			"size": "large"
		}
    },
	{
		"type": "Feature",
		"geometry": {
			"type": "Point", 
			"coordinates": [-149.99638, 61.174442]
		},
		"properties": {
			"title": "Ted Stevens Anchorage International Airport",
			"iata": "ANC",
			"size": "large"
		}
    },
	{
		"type": "Feature",
		"geometry": {
			"type": "Point", 
			"coordinates": [144.80486, 13.492787]
		},
		"properties": {
			"title": "Antonio B. Won Pat International Airport",
			"iata": "GUM",
			"size": "large"
		}
    },
	{
		"type": "Feature",
		"geometry": {
			"type": "Point", 
			"coordinates": [-157.92166, 21.325832]
		},
		"properties": {
			"title": "Honolulu International Airport",
			"iata": "HNL",
			"size": "large"
		}
    },
	{
		"type": "Feature",
		"geometry": {
			"type": "Point", 
			"coordinates": [118.366615, 24.432386]
		},
		"properties": {
			"title": "Kinmen Airport",
			"iata": "KNH",
			"size": "large"
		}
    },
	{
		"type": "Feature",
		"geometry": {
			"type": "Point", 
			"coordinates": [120.345276, 22.5725]
		},
		"properties": {
			"title": "Kaohsiung International Airport",
			"iata": "KHH",
			"size": "large"
		}
    },
	{
		"type": "Feature",
		"geometry": {
			"type": "Point", 
			"coordinates": [121.22389, 25.07639]
		},
		"properties": {
			"title": "Taiwan Taoyuan International Airport",
			"iata": "TPE",
			"size": "large"
		}
    },
	{
		"type": "Feature",
		"geometry": {
			"type": "Point", 
			"coordinates": [140.38744, 35.773212]
		},
		"properties": {
			"title": "Narita International Airport",
			"iata": "NRT",
			"size": "large"
		}
    },
	{
		"type": "Feature",
		"geometry": {
			"type": "Point", 
			"coordinates": [135.24397, 34.43533]
		},
		"properties": {
			"title": "Kansai International Airport",
			"iata": "KIX",
			"size": "large"
		}
    },
	{
		"type": "Feature",
		"geometry": {
			"type": "Point", 
			"coordinates": [141.68134, 42.78728]
		},
		"properties": {
			"title": "New Chitose Airport",
			"iata": "CTS",
			"size": "large"
		}
    },
	{
		"type": "Feature",
		"geometry": {
			"type": "Point", 
			"coordinates": [130.4439, 33.584286]
		},
		"properties": {
			"title": "Fukuoka Airport",
			"iata": "FUK",
			"size": "large"
		}
    },
	{
		"type": "Feature",
		"geometry": {
			"type": "Point", 
			"coordinates": [130.71562, 31.801224]
		},
		"properties": {
			"title": "Kagoshima Airport",
			"iata": "KOJ",
			"size": "large"
		}
    },
	{
		"type": "Feature",
		"geometry": {
			"type": "Point", 
			"coordinates": [136.80528, 34.858334]
		},
		"properties": {
			"title": "Chubu Centrair International Airport",
			"iata": "NGO",
			"size": "large"
		}
    },
	{
		"type": "Feature",
		"geometry": {
			"type": "Point", 
			"coordinates": [135.44171, 34.790974]
		},
		"properties": {
			"title": "Osaka International Airport",
			"iata": "ITM",
			"size": "large"
		}
    },
	{
		"type": "Feature",
		"geometry": {
			"type": "Point", 
			"coordinates": [139.78453, 35.54907]
		},
		"properties": {
			"title": "Tokyo International Airport",
			"iata": "HND",
			"size": "large"
		}
    },
	{
		"type": "Feature",
		"geometry": {
			"type": "Point", 
			"coordinates": [139.35, 35.75]
		},
		"properties": {
			"title": "Yokota Air Base",
			"iata": "OKO",
			"size": "large"
		}
    },
	{
		"type": "Feature",
		"geometry": {
			"type": "Point", 
			"coordinates": [126.75, 35.983334]
		},
		"properties": {
			"title": "Kunsan Air Base",
			"iata": "KUV",
			"size": "large"
		}
    },
	{
		"type": "Feature",
		"geometry": {
			"type": "Point", 
			"coordinates": [126.49312, 33.5067]
		},
		"properties": {
			"title": "Jeju International Airport",
			"iata": "CJU",
			"size": "large"
		}
    },
	{
		"type": "Feature",
		"geometry": {
			"type": "Point", 
			"coordinates": [128.94873, 35.179317]
		},
		"properties": {
			"title": "Gimhae International Airport",
			"iata": "PUS",
			"size": "large"
		}
    },
	{
		"type": "Feature",
		"geometry": {
			"type": "Point", 
			"coordinates": [126.45123, 37.448524]
		},
		"properties": {
			"title": "Incheon International Airport",
			"iata": "ICN",
			"size": "large"
		}
    },
	{
		"type": "Feature",
		"geometry": {
			"type": "Point", 
			"coordinates": [127.03333, 37.083332]
		},
		"properties": {
			"title": "Osan Air Base",
			"iata": "OSN",
			"size": "large"
		}
    },
	{
		"type": "Feature",
		"geometry": {
			"type": "Point", 
			"coordinates": [126.80351, 37.559288]
		},
		"properties": {
			"title": "Gimpo International Airport",
			"iata": "GMP",
			"size": "large"
		}
    },
	{
		"type": "Feature",
		"geometry": {
			"type": "Point", 
			"coordinates": [127.49509, 36.7224]
		},
		"properties": {
			"title": "Cheongju International Airport",
			"iata": "CJJ",
			"size": "large"
		}
    },
	{
		"type": "Feature",
		"geometry": {
			"type": "Point", 
			"coordinates": [127.645836, 26.195833]
		},
		"properties": {
			"title": "Naha Airport",
			"iata": "OKA",
			"size": "large"
		}
    },
	{
		"type": "Feature",
		"geometry": {
			"type": "Point", 
			"coordinates": [127.76667, 26.35]
		},
		"properties": {
			"title": "Kadena Air Base",
			"iata": "DNA",
			"size": "large"
		}
    },
	{
		"type": "Feature",
		"geometry": {
			"type": "Point", 
			"coordinates": [120.546486, 15.182571]
		},
		"properties": {
			"title": "Diosdado Macapagal International Airport",
			"iata": "CRK",
			"size": "large"
		}
    },
	{
		"type": "Feature",
		"geometry": {
			"type": "Point", 
			"coordinates": [121.01251, 14.509602]
		},
		"properties": {
			"title": "Ninoy Aquino International Airport",
			"iata": "MNL",
			"size": "large"
		}
    },
	{
		"type": "Feature",
		"geometry": {
			"type": "Point", 
			"coordinates": [125.6447, 7.130696]
		},
		"properties": {
			"title": "Francisco Bangoy International Airport",
			"iata": "DVO",
			"size": "large"
		}
    },
	{
		"type": "Feature",
		"geometry": {
			"type": "Point", 
			"coordinates": [123.98278, 10.313333]
		},
		"properties": {
			"title": "Mactan Cebu International Airport",
			"iata": "CEB",
			"size": "large"
		}
    },
	{
		"type": "Feature",
		"geometry": {
			"type": "Point", 
			"coordinates": [45.75, 43.333332]
		},
		"properties": {
			"title": "Grozny North Airport",
			"iata": "GRV",
			"size": "large"
		}
    },
	{
		"type": "Feature",
		"geometry": {
			"type": "Point", 
			"coordinates": [-58.539833, -34.81273]
		},
		"properties": {
			"title": "Ministro Pistarini International Airport",
			"iata": "EZE",
			"size": "large"
		}
    },
	{
		"type": "Feature",
		"geometry": {
			"type": "Point", 
			"coordinates": [-48.480003, -1.389865]
		},
		"properties": {
			"title": "Val de Cans International Airport",
			"iata": "BEL",
			"size": "large"
		}
    },
	{
		"type": "Feature",
		"geometry": {
			"type": "Point", 
			"coordinates": [-47.921486, -15.869807]
		},
		"properties": {
			"title": "Presidente Juscelino Kubistschek International Airport",
			"iata": "BSB",
			"size": "large"
		}
    },
	{
		"type": "Feature",
		"geometry": {
			"type": "Point", 
			"coordinates": [-43.963215, -19.632418]
		},
		"properties": {
			"title": "Tancredo Neves International Airport",
			"iata": "CNF",
			"size": "large"
		}
    },
	{
		"type": "Feature",
		"geometry": {
			"type": "Point", 
			"coordinates": [-48.5452, -27.664446]
		},
		"properties": {
			"title": "Herclio Luz International Airport",
			"iata": "FLN",
			"size": "large"
		}
    },
	{
		"type": "Feature",
		"geometry": {
			"type": "Point", 
			"coordinates": [-43.24651, -22.814653]
		},
		"properties": {
			"title": "Tom Jobim International Airport",
			"iata": "GIG",
			"size": "large"
		}
    },
	{
		"type": "Feature",
		"geometry": {
			"type": "Point", 
			"coordinates": [-46.481926, -23.425669]
		},
		"properties": {
			"title": "So Paulo International Airport",
			"iata": "GRU",
			"size": "large"
		}
    },
	{
		"type": "Feature",
		"geometry": {
			"type": "Point", 
			"coordinates": [-46.659557, -23.626902]
		},
		"properties": {
			"title": "Congonhas Airport",
			"iata": "CGH",
			"size": "large"
		}
    },
	{
		"type": "Feature",
		"geometry": {
			"type": "Point", 
			"coordinates": [-38.335197, -12.913988]
		},
		"properties": {
			"title": "Deputado Lus Eduardo Magalhes International Airport",
			"iata": "SSA",
			"size": "large"
		}
    },
	{
		"type": "Feature",
		"geometry": {
			"type": "Point", 
			"coordinates": [-74.143135, 4.698602]
		},
		"properties": {
			"title": "El Dorado International Airport",
			"iata": "BOG",
			"size": "large"
		}
    },
	{
		"type": "Feature",
		"geometry": {
			"type": "Point", 
			"coordinates": [-71.94371, -13.538429]
		},
		"properties": {
			"title": "Alejandro Velasco Astete International Airport",
			"iata": "CUZ",
			"size": "large"
		}
    },
	{
		"type": "Feature",
		"geometry": {
			"type": "Point", 
			"coordinates": [-56.026466, -34.841152]
		},
		"properties": {
			"title": "Carrasco International \/General C L Berisso Airport",
			"iata": "MVD",
			"size": "large"
		}
    },
	{
		"type": "Feature",
		"geometry": {
			"type": "Point", 
			"coordinates": [-66.004684, 18.437403]
		},
		"properties": {
			"title": "Luis Munoz Marin International Airport",
			"iata": "SJU",
			"size": "large"
		}
    },
	{
		"type": "Feature",
		"geometry": {
			"type": "Point", 
			"coordinates": [10.438611, 36.075832]
		},
		"properties": {
			"title": "Enfidha Zine El Abidine Ben Ali International Airport",
			"iata": "NBE",
			"size": "large"
		}
    },
	{
		"type": "Feature",
		"geometry": {
			"type": "Point", 
			"coordinates": [-63.11406, 18.044722]
		},
		"properties": {
			"title": "Princess Juliana International Airport",
			"iata": "SXM",
			"size": "large"
		}
    },
	{
		"type": "Feature",
		"geometry": {
			"type": "Point", 
			"coordinates": [77.01145, 43.346653]
		},
		"properties": {
			"title": "Almaty Airport",
			"iata": "ALA",
			"size": "large"
		}
    },
	{
		"type": "Feature",
		"geometry": {
			"type": "Point", 
			"coordinates": [71.4612, 51.02781]
		},
		"properties": {
			"title": "Astana International Airport",
			"iata": "TSE",
			"size": "large"
		}
    },
	{
		"type": "Feature",
		"geometry": {
			"type": "Point", 
			"coordinates": [74.46945, 43.05358]
		},
		"properties": {
			"title": "Manas International Airport",
			"iata": "FRU",
			"size": "large"
		}
    },
	{
		"type": "Feature",
		"geometry": {
			"type": "Point", 
			"coordinates": [73.32836, 49.67526]
		},
		"properties": {
			"title": "Sary-Arka Airport",
			"iata": "KGF",
			"size": "large"
		}
    },
	{
		"type": "Feature",
		"geometry": {
			"type": "Point", 
			"coordinates": [50.05039, 40.462486]
		},
		"properties": {
			"title": "Heydar Aliyev International Airport",
			"iata": "GYD",
			"size": "large"
		}
    },
	{
		"type": "Feature",
		"geometry": {
			"type": "Point", 
			"coordinates": [44.39805, 40.15272]
		},
		"properties": {
			"title": "Zvartnots International Airport",
			"iata": "EVN",
			"size": "large"
		}
    },
	{
		"type": "Feature",
		"geometry": {
			"type": "Point", 
			"coordinates": [44.958958, 41.674065]
		},
		"properties": {
			"title": "Tbilisi International Airport",
			"iata": "TBS",
			"size": "large"
		}
    },
	{
		"type": "Feature",
		"geometry": {
			"type": "Point", 
			"coordinates": [30.895206, 50.341244]
		},
		"properties": {
			"title": "Boryspil International Airport",
			"iata": "KBP",
			"size": "large"
		}
    },
	{
		"type": "Feature",
		"geometry": {
			"type": "Point", 
			"coordinates": [37.75, 48.083332]
		},
		"properties": {
			"title": "Donetsk International Airport",
			"iata": "DOK",
			"size": "large"
		}
    },
	{
		"type": "Feature",
		"geometry": {
			"type": "Point", 
			"coordinates": [33.99819, 45.020657]
		},
		"properties": {
			"title": "Simferopol International Airport",
			"iata": "SIP",
			"size": "large"
		}
    },
	{
		"type": "Feature",
		"geometry": {
			"type": "Point", 
			"coordinates": [36.281185, 49.92078]
		},
		"properties": {
			"title": "Kharkiv International Airport",
			"iata": "HRK",
			"size": "large"
		}
    },
	{
		"type": "Feature",
		"geometry": {
			"type": "Point", 
			"coordinates": [30.676718, 46.44101]
		},
		"properties": {
			"title": "Odessa International Airport",
			"iata": "ODS",
			"size": "large"
		}
    },
	{
		"type": "Feature",
		"geometry": {
			"type": "Point", 
			"coordinates": [30.3083, 59.806084]
		},
		"properties": {
			"title": "Pulkovo Airport",
			"iata": "LED",
			"size": "large"
		}
    },
	{
		"type": "Feature",
		"geometry": {
			"type": "Point", 
			"coordinates": [28.032442, 53.889725]
		},
		"properties": {
			"title": "Minsk International Airport",
			"iata": "MSQ",
			"size": "large"
		}
    },
	{
		"type": "Feature",
		"geometry": {
			"type": "Point", 
			"coordinates": [92.48286, 56.18113]
		},
		"properties": {
			"title": "Yemelyanovo Airport",
			"iata": "KJA",
			"size": "large"
		}
    },
	{
		"type": "Feature",
		"geometry": {
			"type": "Point", 
			"coordinates": [39.941105, 43.44884]
		},
		"properties": {
			"title": "Sochi International Airport",
			"iata": "AER",
			"size": "large"
		}
    },
	{
		"type": "Feature",
		"geometry": {
			"type": "Point", 
			"coordinates": [60.804314, 56.750336]
		},
		"properties": {
			"title": "Koltsovo Airport",
			"iata": "SVX",
			"size": "large"
		}
    },
	{
		"type": "Feature",
		"geometry": {
			"type": "Point", 
			"coordinates": [69.26619, 41.262714]
		},
		"properties": {
			"title": "Tashkent International Airport",
			"iata": "TAS",
			"size": "large"
		}
    },
	{
		"type": "Feature",
		"geometry": {
			"type": "Point", 
			"coordinates": [37.899494, 55.414566]
		},
		"properties": {
			"title": "Domodedovo International Airport",
			"iata": "DME",
			"size": "large"
		}
    },
	{
		"type": "Feature",
		"geometry": {
			"type": "Point", 
			"coordinates": [37.416573, 55.966324]
		},
		"properties": {
			"title": "Sheremetyevo International Airport",
			"iata": "SVO",
			"size": "large"
		}
    },
	{
		"type": "Feature",
		"geometry": {
			"type": "Point", 
			"coordinates": [55.884544, 54.565403]
		},
		"properties": {
			"title": "Ufa International Airport",
			"iata": "UFA",
			"size": "large"
		}
    },
	{
		"type": "Feature",
		"geometry": {
			"type": "Point", 
			"coordinates": [50.14742, 53.50782]
		},
		"properties": {
			"title": "Kurumoch International Airport",
			"iata": "KUF",
			"size": "large"
		}
    },
	{
		"type": "Feature",
		"geometry": {
			"type": "Point", 
			"coordinates": [72.87497, 19.095509]
		},
		"properties": {
			"title": "Chhatrapati Shivaji International Airport",
			"iata": "BOM",
			"size": "large"
		}
    },
	{
		"type": "Feature",
		"geometry": {
			"type": "Point", 
			"coordinates": [73.83983, 15.384534]
		},
		"properties": {
			"title": "Dabolim Airport",
			"iata": "GOI",
			"size": "large"
		}
    },
	{
		"type": "Feature",
		"geometry": {
			"type": "Point", 
			"coordinates": [79.8865, 7.174112]
		},
		"properties": {
			"title": "Bandaranaike International Colombo Airport",
			"iata": "CMB",
			"size": "large"
		}
    },
	{
		"type": "Feature",
		"geometry": {
			"type": "Point", 
			"coordinates": [104.84778, 11.546111]
		},
		"properties": {
			"title": "Phnom Penh International Airport",
			"iata": "PNH",
			"size": "large"
		}
    },
	{
		"type": "Feature",
		"geometry": {
			"type": "Point", 
			"coordinates": [103.815926, 13.408436]
		},
		"properties": {
			"title": "Angkor International Airport",
			"iata": "REP",
			"size": "large"
		}
    },
	{
		"type": "Feature",
		"geometry": {
			"type": "Point", 
			"coordinates": [88.43931, 22.64531]
		},
		"properties": {
			"title": "Netaji Subhash Chandra Bose International Airport",
			"iata": "CCU",
			"size": "large"
		}
    },
	{
		"type": "Feature",
		"geometry": {
			"type": "Point", 
			"coordinates": [113.93649, 22.315248]
		},
		"properties": {
			"title": "Chek Lap Kok International Airport",
			"iata": "HKG",
			"size": "large"
		}
    },
	{
		"type": "Feature",
		"geometry": {
			"type": "Point", 
			"coordinates": [74.8073, 31.706741]
		},
		"properties": {
			"title": "Sri Guru Ram Dass Jee International Airport, Amritsar",
			"iata": "ATQ",
			"size": "large"
		}
    },
	{
		"type": "Feature",
		"geometry": {
			"type": "Point", 
			"coordinates": [77.10079, 28.556555]
		},
		"properties": {
			"title": "Indira Gandhi International Airport",
			"iata": "DEL",
			"size": "large"
		}
    },
	{
		"type": "Feature",
		"geometry": {
			"type": "Point", 
			"coordinates": [77.15, 31.116667]
		},
		"properties": {
			"title": "Shimla Airport",
			"iata": "SLV",
			"size": "large"
		}
    },
	{
		"type": "Feature",
		"geometry": {
			"type": "Point", 
			"coordinates": [113.57285, 22.156588]
		},
		"properties": {
			"title": "Macau International Airport",
			"iata": "MFM",
			"size": "large"
		}
    },
	{
		"type": "Feature",
		"geometry": {
			"type": "Point", 
			"coordinates": [77.70556, 13.198889]
		},
		"properties": {
			"title": "Bengaluru International Airport",
			"iata": "BLR",
			"size": "large"
		}
    },
	{
		"type": "Feature",
		"geometry": {
			"type": "Point", 
			"coordinates": [76.39053, 10.155644]
		},
		"properties": {
			"title": "Cochin International Airport",
			"iata": "COK",
			"size": "large"
		}
    },
	{
		"type": "Feature",
		"geometry": {
			"type": "Point", 
			"coordinates": [75.950584, 11.14025]
		},
		"properties": {
			"title": "Calicut International Airport",
			"iata": "CCJ",
			"size": "large"
		}
    },
	{
		"type": "Feature",
		"geometry": {
			"type": "Point", 
			"coordinates": [78.428055, 17.24]
		},
		"properties": {
			"title": "Rajiv Gandhi International Airport, Shamshabad",
			"iata": "HYD",
			"size": "large"
		}
    },
	{
		"type": "Feature",
		"geometry": {
			"type": "Point", 
			"coordinates": [80.16378, 12.982267]
		},
		"properties": {
			"title": "Chennai International Airport",
			"iata": "MAA",
			"size": "large"
		}
    },
	{
		"type": "Feature",
		"geometry": {
			"type": "Point", 
			"coordinates": [78.428055, 17.24]
		},
		"properties": {
			"title": "Rajiv Gandhi Airport",
			"iata": "HYD",
			"size": "large"
		}
    },
	{
		"type": "Feature",
		"geometry": {
			"type": "Point", 
			"coordinates": [76.91907, 8.476126]
		},
		"properties": {
			"title": "Trivandrum International Airport",
			"iata": "TRV",
			"size": "large"
		}
    },
	{
		"type": "Feature",
		"geometry": {
			"type": "Point", 
			"coordinates": [100.60667, 13.9125]
		},
		"properties": {
			"title": "Don Mueang International Airport",
			"iata": "DMK",
			"size": "large"
		}
    },
	{
		"type": "Feature",
		"geometry": {
			"type": "Point", 
			"coordinates": [100.752045, 13.693062]
		},
		"properties": {
			"title": "Suvarnabhumi Airport",
			"iata": "BKK",
			"size": "large"
		}
    },
	{
		"type": "Feature",
		"geometry": {
			"type": "Point", 
			"coordinates": [98.96841, 18.769573]
		},
		"properties": {
			"title": "Chiang Mai International Airport",
			"iata": "CNX",
			"size": "large"
		}
    },
	{
		"type": "Feature",
		"geometry": {
			"type": "Point", 
			"coordinates": [108.20298, 16.055399]
		},
		"properties": {
			"title": "Da Nang International Airport",
			"iata": "DAD",
			"size": "large"
		}
    },
	{
		"type": "Feature",
		"geometry": {
			"type": "Point", 
			"coordinates": [105.802826, 21.214184]
		},
		"properties": {
			"title": "Noi Bai International Airport",
			"iata": "HAN",
			"size": "large"
		}
    },
	{
		"type": "Feature",
		"geometry": {
			"type": "Point", 
			"coordinates": [106.662476, 10.813045]
		},
		"properties": {
			"title": "Tan Son Nhat International Airport",
			"iata": "SGN",
			"size": "large"
		}
    },
	{
		"type": "Feature",
		"geometry": {
			"type": "Point", 
			"coordinates": [96.0875, 21.940052]
		},
		"properties": {
			"title": "Mandalay International Airport",
			"iata": "MDL",
			"size": "large"
		}
    },
	{
		"type": "Feature",
		"geometry": {
			"type": "Point", 
			"coordinates": [96.134155, 16.900068]
		},
		"properties": {
			"title": "Yangon International Airport",
			"iata": "RGN",
			"size": "large"
		}
    },
	{
		"type": "Feature",
		"geometry": {
			"type": "Point", 
			"coordinates": [119.54589, -5.058312]
		},
		"properties": {
			"title": "Hasanuddin International Airport",
			"iata": "UPG",
			"size": "large"
		}
    },
	{
		"type": "Feature",
		"geometry": {
			"type": "Point", 
			"coordinates": [115.1675, -8.748056]
		},
		"properties": {
			"title": "Ngurah Rai (Bali) International Airport",
			"iata": "DPS",
			"size": "large"
		}
    },
	{
		"type": "Feature",
		"geometry": {
			"type": "Point", 
			"coordinates": [112.77724, -7.38387]
		},
		"properties": {
			"title": "Juanda International Airport",
			"iata": "SUB",
			"size": "large"
		}
    },
	{
		"type": "Feature",
		"geometry": {
			"type": "Point", 
			"coordinates": [114.93375, 4.945197]
		},
		"properties": {
			"title": "Brunei International Airport",
			"iata": "BWN",
			"size": "large"
		}
    },
	{
		"type": "Feature",
		"geometry": {
			"type": "Point", 
			"coordinates": [106.655525, -6.130643]
		},
		"properties": {
			"title": "Soekarno-Hatta International Airport",
			"iata": "CGK",
			"size": "large"
		}
    },
	{
		"type": "Feature",
		"geometry": {
			"type": "Point", 
			"coordinates": [101.70539, 2.755672]
		},
		"properties": {
			"title": "Kuala Lumpur International Airport",
			"iata": "KUL",
			"size": "large"
		}
    },
	{
		"type": "Feature",
		"geometry": {
			"type": "Point", 
			"coordinates": [103.990204, 1.361173]
		},
		"properties": {
			"title": "Singapore Changi International Airport",
			"iata": "SIN",
			"size": "large"
		}
    },
	{
		"type": "Feature",
		"geometry": {
			"type": "Point", 
			"coordinates": [153.10905, -27.40303]
		},
		"properties": {
			"title": "Brisbane International Airport",
			"iata": "BNE",
			"size": "large"
		}
    },
	{
		"type": "Feature",
		"geometry": {
			"type": "Point", 
			"coordinates": [144.84978, -37.669613]
		},
		"properties": {
			"title": "Melbourne International Airport",
			"iata": "MEL",
			"size": "large"
		}
    },
	{
		"type": "Feature",
		"geometry": {
			"type": "Point", 
			"coordinates": [115.960236, -31.933603]
		},
		"properties": {
			"title": "Perth International Airport",
			"iata": "PER",
			"size": "large"
		}
    },
	{
		"type": "Feature",
		"geometry": {
			"type": "Point", 
			"coordinates": [149.19052, -35.30735]
		},
		"properties": {
			"title": "Canberra International Airport",
			"iata": "CBR",
			"size": "large"
		}
    },
	{
		"type": "Feature",
		"geometry": {
			"type": "Point", 
			"coordinates": [151.1799, -33.932922]
		},
		"properties": {
			"title": "Sydney Kingsford Smith International Airport",
			"iata": "SYD",
			"size": "large"
		}
    },
	{
		"type": "Feature",
		"geometry": {
			"type": "Point", 
			"coordinates": [116.5871, 40.078537]
		},
		"properties": {
			"title": "Beijing Capital International Airport",
			"iata": "PEK",
			"size": "large"
		}
    },
	{
		"type": "Feature",
		"geometry": {
			"type": "Point", 
			"coordinates": [116.38778, 39.7825]
		},
		"properties": {
			"title": "Beijing Nanyuan Airport",
			"iata": "NAY",
			"size": "large"
		}
    },
	{
		"type": "Feature",
		"geometry": {
			"type": "Point", 
			"coordinates": [117.3399, 39.122627]
		},
		"properties": {
			"title": "Tianjin Binhai International Airport",
			"iata": "TSN",
			"size": "large"
		}
    },
	{
		"type": "Feature",
		"geometry": {
			"type": "Point", 
			"coordinates": [112.62585, 37.754997]
		},
		"properties": {
			"title": "Taiyuan Wusu Airport",
			"iata": "TYN",
			"size": "large"
		}
    },
	{
		"type": "Feature",
		"geometry": {
			"type": "Point", 
			"coordinates": [113.29734, 23.387861]
		},
		"properties": {
			"title": "Guangzhou Baiyun International Airport",
			"iata": "CAN",
			"size": "large"
		}
    },
	{
		"type": "Feature",
		"geometry": {
			"type": "Point", 
			"coordinates": [113.21459, 28.193336]
		},
		"properties": {
			"title": "Changsha Huanghua Airport",
			"iata": "CSX",
			"size": "large"
		}
    },
	{
		"type": "Feature",
		"geometry": {
			"type": "Point", 
			"coordinates": [110.316666, 25.133333]
		},
		"properties": {
			"title": "Guilin Liangjiang International Airport",
			"iata": "KWL",
			"size": "large"
		}
    },
	{
		"type": "Feature",
		"geometry": {
			"type": "Point", 
			"coordinates": [108.1675, 22.61321]
		},
		"properties": {
			"title": "Nanning Wuxu Airport",
			"iata": "NNG",
			"size": "large"
		}
    },
	{
		"type": "Feature",
		"geometry": {
			"type": "Point", 
			"coordinates": [113.81084, 22.639444]
		},
		"properties": {
			"title": "Shenzhen Bao'an International Airport",
			"iata": "SZX",
			"size": "large"
		}
    },
	{
		"type": "Feature",
		"geometry": {
			"type": "Point", 
			"coordinates": [113.84024, 34.52752]
		},
		"properties": {
			"title": "Xinzheng Airport",
			"iata": "CGO",
			"size": "large"
		}
    },
	{
		"type": "Feature",
		"geometry": {
			"type": "Point", 
			"coordinates": [114.209625, 30.776598]
		},
		"properties": {
			"title": "Wuhan Tianhe International Airport",
			"iata": "WUH",
			"size": "large"
		}
    },
	{
		"type": "Feature",
		"geometry": {
			"type": "Point", 
			"coordinates": [110.45717, 19.941612]
		},
		"properties": {
			"title": "Haikou Meilan International Airport",
			"iata": "HAK",
			"size": "large"
		}
    },
	{
		"type": "Feature",
		"geometry": {
			"type": "Point", 
			"coordinates": [109.409706, 18.31063]
		},
		"properties": {
			"title": "Sanya Phoenix International Airport",
			"iata": "SYX",
			"size": "large"
		}
    },